source,source_layer,element_code,element,site,name,lat,lon,lga_name,in_lga,in_northern_beaches,nearby_bbox,tail,agency,location_types,classification,source_url
BOM CDO station list,,139,Rainfall,67114,ABBOTSBURY (FAIRFIELD (CITY FARM)),-33.8667,150.8611,FAIRFIELD,False,False,False,Dec 2000 Mar 2026 24.0 95 N,,,,https://www.bom.gov.au/climate/data/lists_by_element/alphaNSW_139.txt
BOM CDO station list,,139,Rainfall,66034,ABBOTSFORD (BLACKWALL POINT RD),-33.8507,151.1295,CANADA BAY,False,False,False,Jan 2004 Mar 2026 22.3 100 N,,,,https://www.bom.gov.au/climate/data/lists_by_element/alphaNSW_139.txt
BOM CDO station list,,139,Rainfall,55230,ABBOTSLEA,-31.0667,150.05,GUNNEDAH,False,False,False,Jun 1889 Oct 1926 36.4 97 N,,,,https://www.bom.gov.au/climate/data/lists_by_element/alphaNSW_139.txt
BOM CDO station list,,139,Rainfall,63000,ABERCROMBIE (ABERCROMBIE BRIDGE),-33.9541,149.3252,BATHURST REGIONAL,False,False,False,Jul 1931 Sep 2007 74.9 98 N,,,,https://www.bom.gov.au/climate/data/lists_by_element/alphaNSW_139.txt
BOM CDO station list,,139,Rainfall,63296,ABERCROMBIE (ABERCROMBIE RIVER),-33.9547,149.3241,BATHURST REGIONAL,False,False,False,Dec 2000 Dec 2014 13.7 97 N,,,,https://www.bom.gov.au/climate/data/lists_by_element/alphaNSW_139.txt
BOM CDO station list,,139,Rainfall,63199,ABERCROMBIE CAVES,-33.9833,149.4167,OBERON,False,False,False,Jan 1900 Mar 1927 27.2 100 N,,,,https://www.bom.gov.au/climate/data/lists_by_element/alphaNSW_139.txt
BOM CDO station list,,139,Rainfall,63257,ABERCROMBIE (THE JUNCTION),-33.9609,149.3184,UPPER LACHLAN SHIRE,False,False,False,Nov 2007 Aug 2016 8.7 98 N,,,,https://www.bom.gov.au/climate/data/lists_by_element/alphaNSW_139.txt
BOM CDO station list,,139,Rainfall,61000,ABERDEEN (MAIN RD),-32.1655,150.8911,UPPER HUNTER,False,False,False,Jun 1894 May 2013 113.1 95 N,,,,https://www.bom.gov.au/climate/data/lists_by_element/alphaNSW_139.txt
BOM CDO station list,,139,Rainfall,61065,ABERDEEN (ROSSGOLE),-32.1402,150.7285,UPPER HUNTER,False,False,False,Jan 1926 Feb 2026 100.1 100 N,,,,https://www.bom.gov.au/climate/data/lists_by_element/alphaNSW_139.txt
BOM CDO station list,,139,Rainfall,57000,ABERFOYLE,-30.2667,152.0167,ARMIDALE REGIONAL,False,False,False,Sep 1885 Dec 1970 77.3 91 N,,,,https://www.bom.gov.au/climate/data/lists_by_element/alphaNSW_139.txt
BOM CDO station list,,139,Rainfall,57101,ABERFOYLE (BAMBI),-30.2667,152.0333,ARMIDALE REGIONAL,False,False,False,Jan 1971 May 1973 2.4 100 N,,,,https://www.bom.gov.au/climate/data/lists_by_element/alphaNSW_139.txt
BOM CDO station list,,139,Rainfall,56183,ABINGTON (GLANMIRE),-30.3167,151.2,URALLA,False,False,False,Jan 1960 Oct 1974 13.7 92 N,,,,https://www.bom.gov.au/climate/data/lists_by_element/alphaNSW_139.txt
BOM CDO station list,,139,Rainfall,57031,ACACIA PLATEAU (BELMONT),-28.35,152.4333,TENTERFIELD,False,False,False,Jun 1954 Apr 1970 15.9 100 N,,,,https://www.bom.gov.au/climate/data/lists_by_element/alphaNSW_139.txt
BOM CDO station list,,139,Rainfall,71000,ADAMINABY ALPINE TOURIST PARK,-35.9962,148.7693,SNOWY MONARO REGIONAL,False,False,False,Nov 1886 Nov 2022 134.2 99 N,,,,https://www.bom.gov.au/climate/data/lists_by_element/alphaNSW_139.txt
BOM CDO station list,,139,Rainfall,71040,ADAMINABY (YAOUK),-35.7858,148.8106,SNOWY MONARO REGIONAL,False,False,False,Dec 1969 Jul 2023 39.6 74 N,,,,https://www.bom.gov.au/climate/data/lists_by_element/alphaNSW_139.txt
BOM CDO station list,,139,Rainfall,50087,ADAVALE,-32.9,148.0,PARKES,False,False,False,Jan 1894 Jan 1942 47.1 98 N,,,,https://www.bom.gov.au/climate/data/lists_by_element/alphaNSW_139.txt
BOM CDO station list,,139,Rainfall,72083,ADELONG (GALIMBANG),-35.4402,147.928,SNOWY VALLEYS,False,False,False,May 1967 Oct 2013 46.5 100 N,,,,https://www.bom.gov.au/climate/data/lists_by_element/alphaNSW_139.txt
BOM CDO station list,,139,Rainfall,72159,ADELONG (KATHVALE),-35.3205,147.9419,SNOWY VALLEYS,False,False,False,Jun 1985 Mar 2026 38.8 95 N,,,,https://www.bom.gov.au/climate/data/lists_by_element/alphaNSW_139.txt
BOM CDO station list,,139,Rainfall,72000,ADELONG (TUMUT ST),-35.3085,148.0641,SNOWY VALLEYS,False,False,False,Apr 1883 Nov 2020 136.3 99 N,,,,https://www.bom.gov.au/climate/data/lists_by_element/alphaNSW_139.txt
BOM CDO station list,,139,Rainfall,73147,ADJUNGBILLY (RED HILL RD),-35.0875,148.3967,COOTAMUNDRA-GUNDAGAI REGIONAL,False,False,False,Jul 2003 Jul 2004 1.1 100 N,,,,https://www.bom.gov.au/climate/data/lists_by_element/alphaNSW_139.txt
BOM CDO station list,,139,Rainfall,58066,AFTERLEE POST OFFICE,-28.5833,152.8333,KYOGLE,False,False,False,Nov 1953 Aug 1964 10.8 100 N,,,,https://www.bom.gov.au/climate/data/lists_by_element/alphaNSW_139.txt
BOM CDO station list,,139,Rainfall,70000,AINSLIE TYSON ST,-35.2583,149.1424,,False,False,False,Apr 1935 Jan 2021 85.7 100 N,,,,https://www.bom.gov.au/climate/data/lists_by_element/alphaNSW_139.txt
BOM CDO station list,,139,Rainfall,67039,AJANA,-33.65,150.7667,PENRITH,False,False,False,Jan 1963 Dec 1964 2.0 100 N,,,,https://www.bom.gov.au/climate/data/lists_by_element/alphaNSW_139.txt
BOM CDO station list,,139,Rainfall,50001,ALAWA,-33.4,147.6,FORBES,False,False,False,Feb 1925 Mar 1937 10.3 85 N,,,,https://www.bom.gov.au/climate/data/lists_by_element/alphaNSW_139.txt
BOM CDO station list,,139,Rainfall,50033,ALBERT (THE MEADOWS),-32.3333,147.4,LACHLAN,False,False,False,Jul 1906 Oct 1977 71.3 100 N,,,,https://www.bom.gov.au/climate/data/lists_by_element/alphaNSW_139.txt
BOM CDO station list,,139,Rainfall,68129,ALBION PARK (PARKVALE),-34.6,150.75,SHELLHARBOUR,False,False,False,Nov 1962 Jul 1967 4.3 91 N,,,,https://www.bom.gov.au/climate/data/lists_by_element/alphaNSW_139.txt
BOM CDO station list,,139,Rainfall,68000,ALBION PARK POST OFFICE,-34.5712,150.7761,SHELLHARBOUR,False,False,False,Apr 1892 Mar 2026 130.9 98 N,,,,https://www.bom.gov.au/climate/data/lists_by_element/alphaNSW_139.txt
BOM CDO station list,,139,Rainfall,68241,ALBION PARK (SHELLHARBOUR AIRPORT),-34.5639,150.7924,SHELLHARBOUR,False,False,False,Jun 1999 Mar 2026 26.8 100 Y,,,,https://www.bom.gov.au/climate/data/lists_by_element/alphaNSW_139.txt
BOM CDO station list,,139,Rainfall,72001,ALBURY,-36.1,146.9,,False,False,False,Feb 1858 Jul 1962 99.3 95 N,,,,https://www.bom.gov.au/climate/data/lists_by_element/alphaNSW_139.txt
BOM CDO station list,,139,Rainfall,72146,ALBURY AIRPORT,-36.0663,146.953,ALBURY CITY,False,False,False,Jun 1983 Feb 2026 42.3 99 N,,,,https://www.bom.gov.au/climate/data/lists_by_element/alphaNSW_139.txt
BOM CDO station list,,139,Rainfall,72160,ALBURY AIRPORT AWS,-36.0662,146.953,ALBURY CITY,False,False,False,Jun 1994 Mar 2026 31.8 100 Y,,,,https://www.bom.gov.au/climate/data/lists_by_element/alphaNSW_139.txt
BOM CDO station list,,139,Rainfall,72059,ALBURY GRAMMAR SCHOOL,-36.0667,146.9333,ALBURY CITY,False,False,False,Nov 1960 Nov 1969 8.5 94 N,,,,https://www.bom.gov.au/climate/data/lists_by_element/alphaNSW_139.txt
BOM CDO station list,,139,Rainfall,72057,ALBURY PMG REPEATER STATION,-36.1,146.9,,False,False,False,Sep 1954 Jul 1962 7.9 100 N,,,,https://www.bom.gov.au/climate/data/lists_by_element/alphaNSW_139.txt
BOM CDO station list,,139,Rainfall,72097,ALBURY PUMPING STATION,-36.0817,146.955,ALBURY CITY,False,False,False,May 1970 Aug 1986 16.3 100 N,,,,https://www.bom.gov.au/climate/data/lists_by_element/alphaNSW_139.txt
BOM CDO station list,,139,Rainfall,72168,ALBURY (TABLE TOP (NYRIMBLA)),-35.9757,147.0371,ALBURY CITY,False,False,False,Jan 2004 Nov 2012 8.9 100 N,,,,https://www.bom.gov.au/climate/data/lists_by_element/alphaNSW_139.txt
BOM CDO station list,,139,Rainfall,50117,ALECTOWN (BRIDGEWATER),-32.8952,148.2811,PARKES,False,False,False,Sep 1970 Mar 2026 55.4 100 N,,,,https://www.bom.gov.au/climate/data/lists_by_element/alphaNSW_139.txt
BOM CDO station list,,139,Rainfall,65100,ALECTOWN (CAWDOR),-32.9874,148.2288,PARKES,False,False,False,Jun 1992 May 2020 28.0 100 N,,,,https://www.bom.gov.au/climate/data/lists_by_element/alphaNSW_139.txt
BOM CDO station list,,139,Rainfall,50121,ALECTOWN (GLENROY),-32.9433,148.2833,PARKES,False,False,False,Jan 1973 May 1992 19.4 100 N,,,,https://www.bom.gov.au/climate/data/lists_by_element/alphaNSW_139.txt
BOM CDO station list,,139,Rainfall,50115,ALECTOWN (GOONAHRA),-32.857,148.2577,PARKES,False,False,False,Jul 1970 Apr 2013 42.8 100 N,,,,https://www.bom.gov.au/climate/data/lists_by_element/alphaNSW_139.txt
BOM CDO station list,,139,Rainfall,50116,ALECTOWN (KADINA PARK),-32.9294,148.3017,PARKES,False,False,False,Jul 1970 Sep 1997 27.3 100 N,,,,https://www.bom.gov.au/climate/data/lists_by_element/alphaNSW_139.txt
BOM CDO station list,,139,Rainfall,50119,ALECTOWN (VANVILLA),-32.9368,148.2447,PARKES,False,False,False,Sep 1949 Mar 2026 67.6 88 N,,,,https://www.bom.gov.au/climate/data/lists_by_element/alphaNSW_139.txt
BOM CDO station list,,139,Rainfall,66021,ALEXANDRIA (ERSKINEVILLE),-33.9167,151.2,SYDNEY,False,False,False,May 1904 Nov 1973 69.3 100 N,,,,https://www.bom.gov.au/climate/data/lists_by_element/alphaNSW_139.txt
BOM CDO station list,,139,Rainfall,66033,ALEXANDRIA (HENDERSON ROAD),-33.8992,151.1933,SYDNEY,False,False,False,May 1962 Jun 1999 2.3 6 N,,,,https://www.bom.gov.au/climate/data/lists_by_element/alphaNSW_139.txt
BOM CDO station list,,139,Rainfall,57098,ALICE (CLEVELAND),-29.0167,152.5667,CLARENCE VALLEY,False,False,False,Jan 1974 Apr 2000 4.0 15 N,,,,https://www.bom.gov.au/climate/data/lists_by_element/alphaNSW_139.txt
BOM CDO station list,,139,Rainfall,57097,ALICE (TILBAROO),-29.0333,152.5833,CLARENCE VALLEY,False,False,False,Sep 1971 Dec 1973 2.3 100 N,,,,https://www.bom.gov.au/climate/data/lists_by_element/alphaNSW_139.txt
BOM CDO station list,,139,Rainfall,70140,ALLAMBIE,-34.6833,149.7833,GOULBURN MULWAREE,False,False,False,Jul 1959 Oct 1966 7.2 98 N,,,,https://www.bom.gov.au/climate/data/lists_by_element/alphaNSW_139.txt
BOM CDO station list,,139,Rainfall,61001,ALLANDALE (TINGARA),-32.7167,151.4167,MAITLAND,False,False,False,Jul 1902 May 1971 49.1 71 N,,,,https://www.bom.gov.au/climate/data/lists_by_element/alphaNSW_139.txt
BOM CDO station list,,139,Rainfall,49068,ALMA 2,-33.4167,144.3667,BALRANALD,False,False,False,Mar 1899 Dec 1917 18.8 99 N,,,,https://www.bom.gov.au/climate/data/lists_by_element/alphaNSW_139.txt
BOM CDO station list,,139,Rainfall,49069,ALMA (BOOLIGAL),-33.4,144.4,CARRATHOOL,False,False,False,Apr 1896 Aug 1939 31.4 72 N,,,,https://www.bom.gov.au/climate/data/lists_by_element/alphaNSW_139.txt
BOM CDO station list,,139,Rainfall,74263,ALMA PARK (ALBARINGA),-35.6259,146.8343,GREATER HUME SHIRE,False,False,False,Jan 1997 Dec 2021 24.8 99 N,,,,https://www.bom.gov.au/climate/data/lists_by_element/alphaNSW_139.txt
BOM CDO station list,,139,Rainfall,68128,ALPINE,-34.4,150.5167,WINGECARRIBEE,False,False,False,Nov 1962 Dec 1970 7.7 94 N,,,,https://www.bom.gov.au/climate/data/lists_by_element/alphaNSW_139.txt
BOM CDO station list,,139,Rainfall,58000,ALSTONVILLE POST OFFICE,-28.85,153.45,BALLINA,False,False,False,Nov 1903 Jul 1973 69.8 100 N,,,,https://www.bom.gov.au/climate/data/lists_by_element/alphaNSW_139.txt
BOM CDO station list,,139,Rainfall,58131,ALSTONVILLE TROPICAL FRUIT RESEARCH STAT,-28.8521,153.4556,BALLINA,False,False,False,Mar 1963 Jul 2011 48.0 99 N,,,,https://www.bom.gov.au/climate/data/lists_by_element/alphaNSW_139.txt
BOM CDO station list,,139,Rainfall,68227,AMBARVALE CLENNAM AVE,-34.0867,150.7917,CAMPBELLTOWN,False,False,False,Oct 1988 Dec 1991 3.3 100 N,,,,https://www.bom.gov.au/climate/data/lists_by_element/alphaNSW_139.txt
BOM CDO station list,,139,Rainfall,48066,AMPHITHEATRE,-31.5333,145.6,COBAR,False,False,False,Jan 1884 Dec 1920 30.3 82 N,,,,https://www.bom.gov.au/climate/data/lists_by_element/alphaNSW_139.txt
BOM CDO station list,,139,Rainfall,48168,ANGLEDOOL (ANGLEDOOL STATION),-29.1173,147.8993,WALGETT,False,False,False,Jan 1886 Mar 2026 140.3 100 N,,,,https://www.bom.gov.au/climate/data/lists_by_element/alphaNSW_139.txt
BOM CDO station list,,139,Rainfall,48254,ANGLEDOOL (ANGLEDOOL STATION) COMPARISON,-29.1173,147.8992,WALGETT,False,False,False,Jul 2023 Mar 2026 2.8 100 N,,,,https://www.bom.gov.au/climate/data/lists_by_element/alphaNSW_139.txt
BOM CDO station list,,139,Rainfall,63131,ANGUS PLACE (WOLGAN GAP),-33.3167,150.1167,LITHGOW CITY,False,False,False,Aug 1959 Nov 1982 23.2 99 N,,,,https://www.bom.gov.au/climate/data/lists_by_element/alphaNSW_139.txt
BOM CDO station list,,139,Rainfall,46118,ANNALARA,-31.2667,144.0333,CENTRAL DARLING,False,False,False,Sep 1923 Jun 1966 42.8 100 N,,,,https://www.bom.gov.au/climate/data/lists_by_element/alphaNSW_139.txt
BOM CDO station list,,139,Rainfall,47001,APPIN 3,-32.4167,142.3833,CENTRAL DARLING,False,False,False,Jun 1925 Jan 1961 26.5 74 N,,,,https://www.bom.gov.au/climate/data/lists_by_element/alphaNSW_139.txt
BOM CDO station list,,139,Rainfall,68001,APPIN CHURCH ST,-34.2069,150.7931,WOLLONDILLY,False,False,False,Jan 1907 Jun 1997 74.2 82 N,,,,https://www.bom.gov.au/climate/data/lists_by_element/alphaNSW_139.txt
BOM CDO station list,,139,Rainfall,68134,APPIN (STANHOPE),-34.2,150.7833,WOLLONDILLY,False,False,False,Dec 1888 Dec 1913 25.1 100 N,,,,https://www.bom.gov.au/climate/data/lists_by_element/alphaNSW_139.txt
BOM CDO station list,,139,Rainfall,68234,APPIN (WILTON ROAD),-34.2206,150.7685,WOLLONDILLY,False,False,False,Aug 2009 Oct 2010 0.9 73 N,,,,https://www.bom.gov.au/climate/data/lists_by_element/alphaNSW_139.txt
BOM CDO station list,,139,Rainfall,74137,ARAJOL,-35.1167,147.0167,WAGGA WAGGA,False,False,False,Jan 1904 Dec 1926 20.7 90 N,,,,https://www.bom.gov.au/climate/data/lists_by_element/alphaNSW_139.txt
BOM CDO station list,,139,Rainfall,69127,ARALUEN LOWER (ARALUEN RD),-35.6867,149.8382,QUEANBEYAN-PALERANG REGIONAL,False,False,False,Jun 1980 Mar 2026 45.1 98 N,,,,https://www.bom.gov.au/climate/data/lists_by_element/alphaNSW_139.txt
BOM CDO station list,,139,Rainfall,69105,ARALUEN (MERRICUMBENE),-35.7333,149.8667,EUROBODALLA,False,False,False,Sep 1970 Jun 1979 8.8 100 N,,,,https://www.bom.gov.au/climate/data/lists_by_element/alphaNSW_139.txt
BOM CDO station list,,139,Rainfall,54071,ARALUEN (OAKWOOD),-29.6167,151.0833,INVERELL,False,False,False,Sep 1958 Sep 1994 12.6 35 N,,,,https://www.bom.gov.au/climate/data/lists_by_element/alphaNSW_139.txt
BOM CDO station list,,139,Rainfall,69000,ARALUEN POST OFFICE,-35.65,149.8167,QUEANBEYAN-PALERANG REGIONAL,False,False,False,Sep 1891 Apr 1970 78.7 100 N,,,,https://www.bom.gov.au/climate/data/lists_by_element/alphaNSW_139.txt
BOM CDO station list,,139,Rainfall,70242,ARANDA (BINDAGA ST),-35.2572,149.0742,,False,False,False,Jul 1971 Mar 2026 54.8 100 N,,,,https://www.bom.gov.au/climate/data/lists_by_element/alphaNSW_139.txt
BOM CDO station list,,139,Rainfall,56000,ARDING,-30.6,151.55,URALLA,False,False,False,Jul 1922 Sep 1954 31.8 99 N,,,,https://www.bom.gov.au/climate/data/lists_by_element/alphaNSW_139.txt
BOM CDO station list,,139,Rainfall,56200,ARDING (BOOYONG),-30.5833,151.55,URALLA,False,False,False,Feb 1970 Apr 1974 4.2 98 N,,,,https://www.bom.gov.au/climate/data/lists_by_element/alphaNSW_139.txt
BOM CDO station list,,139,Rainfall,74266,ARDLETHAN (MAXWELTON),-34.2336,146.8453,BLAND,False,False,False,Jul 2003 May 2016 12.9 100 N,,,,https://www.bom.gov.au/climate/data/lists_by_element/alphaNSW_139.txt
BOM CDO station list,,139,Rainfall,74000,ARDLETHAN POST OFFICE,-34.357,146.9035,COOLAMON,False,False,False,Jul 1909 Mar 2026 110.9 95 N,,,,https://www.bom.gov.au/climate/data/lists_by_element/alphaNSW_139.txt
BOM CDO station list,,139,Rainfall,74268,ARDLETHAN (STRATHBOGIE),-34.1932,146.9278,BLAND,False,False,False,Jan 1970 Mar 2026 56.2 100 N,,,,https://www.bom.gov.au/climate/data/lists_by_element/alphaNSW_139.txt
BOM CDO station list,,139,Rainfall,72164,ARGALONG (CANYA),-35.3214,148.4642,SNOWY VALLEYS,False,False,False,Jul 1997 May 1998 0.9 100 N,,,,https://www.bom.gov.au/climate/data/lists_by_element/alphaNSW_139.txt
BOM CDO station list,,139,Rainfall,72152,ARGALONG (SANDY CREEK),-35.317,148.433,SNOWY VALLEYS,False,False,False,Dec 2000 Mar 2026 21.9 86 N,,,,https://www.bom.gov.au/climate/data/lists_by_element/alphaNSW_139.txt
BOM CDO station list,,139,Rainfall,72003,ARGALONG (THE FARM),-35.3083,148.4117,SNOWY VALLEYS,False,False,False,Aug 1900 Jul 1996 92.8 97 N,,,,https://www.bom.gov.au/climate/data/lists_by_element/alphaNSW_139.txt
BOM CDO station list,,139,Rainfall,74001,ARGOON,-34.9,145.9,MURRUMBIDGEE,False,False,False,Jan 1891 Sep 1958 67.8 100 N,,,,https://www.bom.gov.au/climate/data/lists_by_element/alphaNSW_139.txt
BOM CDO station list,,139,Rainfall,74002,ARIAH PARK POST OFFICE,-34.3479,147.2208,TEMORA,False,False,False,May 1903 Aug 2023 119.5 99 N,,,,https://www.bom.gov.au/climate/data/lists_by_element/alphaNSW_139.txt
BOM CDO station list,,139,Rainfall,74231,ARIAH PARK (TRICKETTDALE),-34.5333,147.3,TEMORA,False,False,False,Nov 1968 Apr 1975 6.4 99 N,,,,https://www.bom.gov.au/climate/data/lists_by_element/alphaNSW_139.txt
BOM CDO station list,,139,Rainfall,74239,ARIAH PARK (YARRANJERRY),-34.4667,147.05,COOLAMON,False,False,False,Apr 1896 Jul 1903 7.0 95 N,,,,https://www.bom.gov.au/climate/data/lists_by_element/alphaNSW_139.txt
BOM CDO station list,,139,Rainfall,63149,ARLAMONT,-33.7,149.9333,OBERON,False,False,False,Aug 1959 Nov 1969 10.3 100 N,,,,https://www.bom.gov.au/climate/data/lists_by_element/alphaNSW_139.txt
BOM CDO station list,,139,Rainfall,56238,ARMIDALE AIRPORT AWS,-30.5273,151.6158,ARMIDALE REGIONAL,False,False,False,Jun 1994 Mar 2026 31.3 98 Y,,,,https://www.bom.gov.au/climate/data/lists_by_element/alphaNSW_139.txt
BOM CDO station list,,139,Rainfall,56219,ARMIDALE (AMAROO RD),-30.5154,151.5324,URALLA,False,False,False,Jan 2007 Sep 2009 2.6 94 N,,,,https://www.bom.gov.au/climate/data/lists_by_element/alphaNSW_139.txt
BOM CDO station list,,139,Rainfall,56068,ARMIDALE (BELHAVEN),-30.3793,151.7521,ARMIDALE REGIONAL,False,False,False,Feb 1961 Nov 2003 40.8 95 N,,,,https://www.bom.gov.au/climate/data/lists_by_element/alphaNSW_139.txt
BOM CDO station list,,139,Rainfall,56003,ARMIDALE FOREST,-30.5,151.6,ARMIDALE REGIONAL,False,False,False,Jan 1929 Jan 1954 25.1 100 N,,,,https://www.bom.gov.au/climate/data/lists_by_element/alphaNSW_139.txt
BOM CDO station list,,139,Rainfall,57007,ARMIDALE (FORGLEN),-30.45,151.9167,ARMIDALE REGIONAL,False,False,False,Jan 1937 Dec 1975 38.7 99 N,,,,https://www.bom.gov.au/climate/data/lists_by_element/alphaNSW_139.txt
BOM CDO station list,,139,Rainfall,57048,ARMIDALE (GARA),-30.5833,151.8167,ARMIDALE REGIONAL,False,False,False,May 1961 Oct 1974 13.0 96 N,,,,https://www.bom.gov.au/climate/data/lists_by_element/alphaNSW_139.txt
BOM CDO station list,,139,Rainfall,57092,ARMIDALE (GIRRAKOOL),-30.3667,151.9667,ARMIDALE REGIONAL,False,False,False,Jan 1965 Aug 1974 9.7 100 N,,,,https://www.bom.gov.au/climate/data/lists_by_element/alphaNSW_139.txt
BOM CDO station list,,139,Rainfall,57034,ARMIDALE (GOOYONG),-30.45,151.8167,ARMIDALE REGIONAL,False,False,False,Feb 1961 Feb 1984 23.0 100 N,,,,https://www.bom.gov.au/climate/data/lists_by_element/alphaNSW_139.txt
BOM CDO station list,,139,Rainfall,57088,ARMIDALE (HERBERT PARK),-30.4167,151.8167,ARMIDALE REGIONAL,False,False,False,Jan 1930 Dec 1935 6.0 100 N,,,,https://www.bom.gov.au/climate/data/lists_by_element/alphaNSW_139.txt
BOM CDO station list,,139,Rainfall,57106,ARMIDALE (LOCH ABBA),-30.39,151.815,ARMIDALE REGIONAL,False,False,False,May 1976 Dec 2010 28.8 83 N,,,,https://www.bom.gov.au/climate/data/lists_by_element/alphaNSW_139.txt
BOM CDO station list,,139,Rainfall,56002,ARMIDALE (RADIO STATION 2AD),-30.5167,151.6681,ARMIDALE REGIONAL,False,False,False,Dec 1857 Jun 1997 134.5 96 N,,,,https://www.bom.gov.au/climate/data/lists_by_element/alphaNSW_139.txt
BOM CDO station list,,139,Rainfall,56191,ARMIDALE (TILBUSTER),-30.45,151.6833,ARMIDALE REGIONAL,False,False,False,Feb 1966 Nov 1974 7.7 87 N,,,,https://www.bom.gov.au/climate/data/lists_by_element/alphaNSW_139.txt
BOM CDO station list,,139,Rainfall,56069,ARMIDALE (TIVERTON),-30.6479,151.7463,ARMIDALE REGIONAL,False,False,False,Feb 1961 Jul 2009 39.3 81 N,,,,https://www.bom.gov.au/climate/data/lists_by_element/alphaNSW_139.txt
BOM CDO station list,,139,Rainfall,56037,ARMIDALE (TREE GROUP NURSERY),-30.5243,151.6716,ARMIDALE REGIONAL,False,False,False,Jun 1997 Mar 2026 28.8 100 N,,,,https://www.bom.gov.au/climate/data/lists_by_element/alphaNSW_139.txt
BOM CDO station list,,139,Rainfall,56070,ARMIDALE (WYNDELLA),-30.4167,151.5667,ARMIDALE REGIONAL,False,False,False,May 1961 Jun 1969 7.1 87 N,,,,https://www.bom.gov.au/climate/data/lists_by_element/alphaNSW_139.txt
BOM CDO station list,,139,Rainfall,67049,ARNOLD GROVE,-33.4,151.2,CENTRAL COAST,False,False,False,Jan 1889 Dec 1918 30.0 100 N,,,,https://www.bom.gov.au/climate/data/lists_by_element/alphaNSW_139.txt
BOM CDO station list,,139,Rainfall,59132,ARRAWARRA CARAVAN PARK,-30.0611,153.1944,COFFS HARBOUR,False,False,False,Sep 1986 Mar 1992 5.3 94 N,,,,https://www.bom.gov.au/climate/data/lists_by_element/alphaNSW_139.txt
BOM CDO station list,,139,Rainfall,54001,ARRAWATTA (INVERELL),-29.7,151.1,INVERELL,False,False,False,Mar 1907 Jan 1951 36.2 82 N,,,,https://www.bom.gov.au/climate/data/lists_by_element/alphaNSW_139.txt
BOM CDO station list,,139,Rainfall,53061,ARRORAMIE LOWER,-30.75,149.6,NARRABRI,False,False,False,Aug 1889 Jun 1914 24.8 100 N,,,,https://www.bom.gov.au/climate/data/lists_by_element/alphaNSW_139.txt
BOM CDO station list,,139,Rainfall,65000,ARTHURVILLE (CRAMOND),-32.4975,148.7488,DUBBO REGIONAL,False,False,False,Nov 1888 Jan 2026 135.8 99 N,,,,https://www.bom.gov.au/climate/data/lists_by_element/alphaNSW_139.txt
BOM CDO station list,,139,Rainfall,47002,ARUMPO,-33.75,142.9,WENTWORTH,False,False,False,Jan 1880 Jun 1966 84.6 98 N,,,,https://www.bom.gov.au/climate/data/lists_by_element/alphaNSW_139.txt
BOM CDO station list,,139,Rainfall,74138,ARUNDEL,-35.9,146.6,FEDERATION,False,False,False,Jan 1889 Dec 1936 48.0 100 N,,,,https://www.bom.gov.au/climate/data/lists_by_element/alphaNSW_139.txt
BOM CDO station list,,139,Rainfall,66000,ASHFIELD BOWLING CLUB,-33.885,151.1344,INNER WEST,False,False,False,Jan 1894 Mar 2012 106.6 90 N,,,,https://www.bom.gov.au/climate/data/lists_by_element/alphaNSW_139.txt
BOM CDO station list,,139,Rainfall,54054,ASHFORD (ALMOND BANK),-29.45,151.2333,INVERELL,False,False,False,Sep 1958 Dec 1964 6.3 100 N,,,,https://www.bom.gov.au/climate/data/lists_by_element/alphaNSW_139.txt
BOM CDO station list,,139,Rainfall,54043,ASHFORD (BEAUMONT),-29.357,151.1432,INVERELL,False,False,False,Jan 1946 Nov 2025 77.9 97 N,,,,https://www.bom.gov.au/climate/data/lists_by_element/alphaNSW_139.txt
BOM CDO station list,,139,Rainfall,54046,ASHFORD (BURRABOGIE),-29.3992,151.4107,INVERELL,False,False,False,Jan 1959 Mar 2026 67.2 100 N,,,,https://www.bom.gov.au/climate/data/lists_by_element/alphaNSW_139.txt
BOM CDO station list,,139,Rainfall,54053,ASHFORD (COOLENDOON),-29.45,151.1667,INVERELL,False,False,False,Sep 1958 Jun 1979 20.8 100 N,,,,https://www.bom.gov.au/climate/data/lists_by_element/alphaNSW_139.txt
BOM CDO station list,,139,Rainfall,54051,ASHFORD (EGREMONT),-29.4167,151.15,INVERELL,False,False,False,Jan 1959 Mar 1977 18.1 99 N,,,,https://www.bom.gov.au/climate/data/lists_by_element/alphaNSW_139.txt
BOM CDO station list,,139,Rainfall,54041,ASHFORD (NORWOOD),-29.25,151.05,INVERELL,False,False,False,Jan 1959 Oct 1979 20.8 100 N,,,,https://www.bom.gov.au/climate/data/lists_by_element/alphaNSW_139.txt
BOM CDO station list,,139,Rainfall,54055,ASHFORD (SABRINA),-29.4017,151.2033,INVERELL,False,False,False,Aug 1958 Dec 1987 29.4 100 N,,,,https://www.bom.gov.au/climate/data/lists_by_element/alphaNSW_139.txt
BOM CDO station list,,139,Rainfall,54045,ASHFORD (SPRINGVALE),-29.3411,151.2894,INVERELL,False,False,False,Sep 1958 Dec 2020 60.4 97 N,,,,https://www.bom.gov.au/climate/data/lists_by_element/alphaNSW_139.txt
BOM CDO station list,,139,Rainfall,54002,ASHFORD (SUNHAVEN HOSTEL),-29.3196,151.0916,INVERELL,False,False,False,Mar 1901 Dec 2007 101.2 95 N,,,,https://www.bom.gov.au/climate/data/lists_by_element/alphaNSW_139.txt
BOM CDO station list,,139,Rainfall,54044,ASHFORD (TARRANGOWER),-29.2975,151.1478,INVERELL,False,False,False,Jan 1959 Dec 2008 49.0 98 N,,,,https://www.bom.gov.au/climate/data/lists_by_element/alphaNSW_139.txt
BOM CDO station list,,139,Rainfall,54047,ASHFORD (TREVANNA),-29.9,151.0833,INVERELL,False,False,False,Sep 1958 Jul 1993 17.7 51 N,,,,https://www.bom.gov.au/climate/data/lists_by_element/alphaNSW_139.txt
BOM CDO station list,,139,Rainfall,53020,ASHLEY (MIDKIN),-29.3,149.7667,MOREE PLAINS,False,False,False,Aug 1906 Jun 1978 71.9 100 N,,,,https://www.bom.gov.au/climate/data/lists_by_element/alphaNSW_139.txt
BOM CDO station list,,139,Rainfall,53040,ASHLEY (THE PRAIRIES),-29.048,149.9384,MOREE PLAINS,False,False,False,Jan 1928 Sep 2011 83.6 100 N,,,,https://www.bom.gov.au/climate/data/lists_by_element/alphaNSW_139.txt
BOM CDO station list,,139,Rainfall,63258,ATHOL 1,-33.5,149.3,BLAYNEY,False,False,False,Apr 1879 Nov 1939 59.9 99 N,,,,https://www.bom.gov.au/climate/data/lists_by_element/alphaNSW_139.txt
BOM CDO station list,,139,Rainfall,55000,ATTUNGA (GARTHOWEN),-30.9113,150.8579,TAMWORTH REGIONAL,False,False,False,Jan 1903 Mar 2026 120.1 97 N,,,,https://www.bom.gov.au/climate/data/lists_by_element/alphaNSW_139.txt
BOM CDO station list,,139,Rainfall,55121,ATTUNGA (KERRIBREE),-30.8833,150.8167,TAMWORTH REGIONAL,False,False,False,Oct 1958 Aug 1978 19.8 100 N,,,,https://www.bom.gov.au/climate/data/lists_by_element/alphaNSW_139.txt
BOM CDO station list,,139,Rainfall,55122,ATTUNGA (MINDEROO),-30.8415,150.9097,TAMWORTH REGIONAL,False,False,False,Aug 1958 Dec 2025 63.1 94 N,,,,https://www.bom.gov.au/climate/data/lists_by_element/alphaNSW_139.txt
BOM CDO station list,,139,Rainfall,55105,ATTUNGA (TARANA),-30.7966,150.8643,TAMWORTH REGIONAL,False,False,False,Oct 1958 Mar 2026 64.3 95 N,,,,https://www.bom.gov.au/climate/data/lists_by_element/alphaNSW_139.txt
BOM CDO station list,,139,Rainfall,55120,ATTUNGA (THE PINES),-30.9309,150.7873,TAMWORTH REGIONAL,False,False,False,Aug 1958 Mar 2026 67.3 99 N,,,,https://www.bom.gov.au/climate/data/lists_by_element/alphaNSW_139.txt
BOM CDO station list,,139,Rainfall,55001,ATTUNGA (WARRAWILLA),-30.9333,150.8833,TAMWORTH REGIONAL,False,False,False,Jan 1947 Nov 1973 23.3 86 N,,,,https://www.bom.gov.au/climate/data/lists_by_element/alphaNSW_139.txt
BOM CDO station list,,139,Rainfall,66001,AUDLEY NATIONAL PARK BOTTOM ST,-34.0667,151.05,SUTHERLAND SHIRE,False,False,False,Mar 1899 Dec 1979 72.4 90 N,,,,https://www.bom.gov.au/climate/data/lists_by_element/alphaNSW_139.txt
BOM CDO station list,,139,Rainfall,66176,AUDLEY (ROYAL NATIONAL PARK),-34.0642,151.0578,SUTHERLAND SHIRE,False,False,False,Jan 1979 Mar 2026 43.0 91 N,,,,https://www.bom.gov.au/climate/data/lists_by_element/alphaNSW_139.txt
BOM CDO station list,,139,Rainfall,67036,AUSTRAL EIGHTH AVE,-33.9333,150.8167,LIVERPOOL,False,False,False,Jun 1964 Aug 1989 25.1 99 N,,,,https://www.bom.gov.au/climate/data/lists_by_element/alphaNSW_139.txt
BOM CDO station list,,139,Rainfall,66079,AVALON BEACH (AVALON (PALMGROVE RD)),-33.6358,151.3223,NORTHERN BEACHES,True,True,False,Oct 1958 Nov 2021 42.8 68 N,,,,https://www.bom.gov.au/climate/data/lists_by_element/alphaNSW_139.txt
BOM CDO station list,,139,Rainfall,66053,AVALON (WOLLSTONECRAFT AVE),-33.63,151.3291,NORTHERN BEACHES,True,True,False,Jan 2002 Jul 2015 13.2 97 N,,,,https://www.bom.gov.au/climate/data/lists_by_element/alphaNSW_139.txt
BOM CDO station list,,139,Rainfall,61003,AVOCA BEACH,-33.4667,151.4333,CENTRAL COAST,False,False,False,Mar 1934 Dec 1970 36.8 100 N,,,,https://www.bom.gov.au/climate/data/lists_by_element/alphaNSW_139.txt
BOM CDO station list,,139,Rainfall,61294,AVOCA BEACH BOWLING CLUB,-33.4666,151.4123,CENTRAL COAST,False,False,False,May 1970 Mar 2026 55.8 100 N,,,,https://www.bom.gov.au/climate/data/lists_by_element/alphaNSW_139.txt
BOM CDO station list,,139,Rainfall,68002,AVON DAM MWSDB,-34.35,150.6333,WINGECARRIBEE,False,False,False,Jan 1919 Oct 1967 48.8 100 N,,,,https://www.bom.gov.au/climate/data/lists_by_element/alphaNSW_139.txt
BOM CDO station list,,139,Rainfall,55317,BAAN BAA,-30.6,149.9,NARRABRI,False,False,False,Feb 1892 Sep 1951 56.5 95 N,,,,https://www.bom.gov.au/climate/data/lists_by_element/alphaNSW_139.txt
BOM CDO station list,,139,Rainfall,49066,BABINDA TANK,-31.8833,146.35,COBAR,False,False,False,Apr 1904 Feb 1917 12.9 100 N,,,,https://www.bom.gov.au/climate/data/lists_by_element/alphaNSW_139.txt
BOM CDO station list,,139,Rainfall,73059,BACK CREEK,-33.85,147.5,BLAND,False,False,False,Jan 1901 Dec 1916 11.8 73 N,,,,https://www.bom.gov.au/climate/data/lists_by_element/alphaNSW_139.txt
BOM CDO station list,,139,Rainfall,55199,BACK CREEK (NUNDLE),-31.5833,151.05,TAMWORTH REGIONAL,False,False,False,Feb 1959 May 1967 6.3 75 N,,,,https://www.bom.gov.au/climate/data/lists_by_element/alphaNSW_139.txt
BOM CDO station list,,139,Rainfall,58108,BACKMEDE (GREEN GATES),-28.7667,153.0333,RICHMOND VALLEY,False,False,False,Oct 1965 Dec 1976 11.3 100 N,,,,https://www.bom.gov.au/climate/data/lists_by_element/alphaNSW_139.txt
BOM CDO station list,,139,Rainfall,65001,BACK YAMMA STATE FOREST,-33.3,148.2,FORBES,False,False,False,Jun 1938 Aug 1957 19.0 99 N,,,,https://www.bom.gov.au/climate/data/lists_by_element/alphaNSW_139.txt
BOM CDO station list,,139,Rainfall,67108,BADGERYS CREEK AWS,-33.8969,150.7281,LIVERPOOL,False,False,False,Nov 1995 Mar 2026 30.2 99 Y,,,,https://www.bom.gov.au/climate/data/lists_by_element/alphaNSW_139.txt
BOM CDO station list,,139,Rainfall,67068,BADGERYS CREEK MCMASTERS F.STN,-33.8683,150.7278,PENRITH,False,False,False,Jan 1936 Dec 1996 59.5 97 N,,,,https://www.bom.gov.au/climate/data/lists_by_element/alphaNSW_139.txt
BOM CDO station list,,139,Rainfall,67050,BADGERYS CREEK SCHOOL,-33.8833,150.75,LIVERPOOL,False,False,False,Jan 1919 May 1929 10.4 100 N,,,,https://www.bom.gov.au/climate/data/lists_by_element/alphaNSW_139.txt
BOM CDO station list,,139,Rainfall,61264,BAERAMI CREEK (BOREEWAN),-32.45,150.45,MUSWELLBROOK,False,False,False,May 1968 Dec 1984 16.7 100 N,,,,https://www.bom.gov.au/climate/data/lists_by_element/alphaNSW_139.txt
BOM CDO station list,,139,Rainfall,61204,BAERAMI CREEK (BRONWYN PARK),-32.5356,150.4483,MUSWELLBROOK,False,False,False,Jan 1960 Jun 2021 61.5 100 N,,,,https://www.bom.gov.au/climate/data/lists_by_element/alphaNSW_139.txt
BOM CDO station list,,139,Rainfall,61423,BAERAMI (THE OLD DAIRY),-32.377,150.4851,MUSWELLBROOK,False,False,False,Jul 2010 Mar 2026 15.8 100 N,,,,https://www.bom.gov.au/climate/data/lists_by_element/alphaNSW_139.txt
BOM CDO station list,,139,Rainfall,72028,BAGO (KUNAMA),-35.5833,148.1,SNOWY VALLEYS,False,False,False,Jan 1940 Nov 1968 28.7 99 N,,,,https://www.bom.gov.au/climate/data/lists_by_element/alphaNSW_139.txt
BOM CDO station list,,139,Rainfall,72039,BAGO (PILOT HILL),-35.6167,148.15,SNOWY VALLEYS,False,False,False,Jul 1910 Sep 1951 34.8 84 N,,,,https://www.bom.gov.au/climate/data/lists_by_element/alphaNSW_139.txt
BOM CDO station list,,139,Rainfall,75090,BAGORMBA,-34.4,144.9333,HAY,False,False,False,Jan 1894 Jan 1913 16.3 86 N,,,,https://www.bom.gov.au/climate/data/lists_by_element/alphaNSW_139.txt
BOM CDO station list,,139,Rainfall,47004,BAKARA,-31.8833,143.05,CENTRAL DARLING,False,False,False,Oct 1925 Aug 1974 48.6 99 N,,,,https://www.bom.gov.au/climate/data/lists_by_element/alphaNSW_139.txt
BOM CDO station list,,139,Rainfall,47092,BALACLAVA,-32.1333,141.3667,UNINCORPORATED - FAR WEST AREA,False,False,False,Nov 1908 Sep 1926 16.5 92 N,,,,https://www.bom.gov.au/climate/data/lists_by_element/alphaNSW_139.txt
BOM CDO station list,,139,Rainfall,61134,BALAIBLUAN,-32.1667,150.55,MUSWELLBROOK,False,False,False,Nov 1961 Mar 1968 4.8 75 N,,,,https://www.bom.gov.au/climate/data/lists_by_element/alphaNSW_139.txt
BOM CDO station list,,139,Rainfall,65042,BALDERODGERY,-33.1,148.4,PARKES,False,False,False,Oct 1895 Mar 1919 23.5 100 N,,,,https://www.bom.gov.au/climate/data/lists_by_element/alphaNSW_139.txt
BOM CDO station list,,139,Rainfall,65002,BALD HILLS,-33.1167,148.6,CABONNE,False,False,False,Jul 1930 Dec 1959 29.5 100 N,,,,https://www.bom.gov.au/climate/data/lists_by_element/alphaNSW_139.txt
BOM CDO station list,,139,Rainfall,50057,BALEVEOLAN,-32.3,147.0,LACHLAN,False,False,False,Jan 1937 Dec 1941 5.0 100 N,,,,https://www.bom.gov.au/climate/data/lists_by_element/alphaNSW_139.txt
BOM CDO station list,,139,Rainfall,66002,BALGOWLAH (ETHEL STREET),-33.7997,151.2508,NORTHERN BEACHES,True,True,False,Jun 1940 Dec 1989 49.3 99 N,,,,https://www.bom.gov.au/climate/data/lists_by_element/alphaNSW_139.txt
BOM CDO station list,,139,Rainfall,51126,BALLADORAN (GLENBURN),-31.8833,148.4833,GILGANDRA,False,False,False,May 1968 Apr 1973 4.9 98 N,,,,https://www.bom.gov.au/climate/data/lists_by_element/alphaNSW_139.txt
BOM CDO station list,,139,Rainfall,69118,BALLALABA (BOURKES HILL),-35.5563,149.6414,QUEANBEYAN-PALERANG REGIONAL,False,False,False,May 1968 Apr 2004 31.8 88 N,,,,https://www.bom.gov.au/climate/data/lists_by_element/alphaNSW_139.txt
BOM CDO station list,,139,Rainfall,74004,BALLDALE POST OFFICE,-35.8462,146.5194,FEDERATION,False,False,False,Jun 1908 Aug 2023 111.8 97 N,,,,https://www.bom.gov.au/climate/data/lists_by_element/alphaNSW_139.txt
BOM CDO station list,,139,Rainfall,58198,BALLINA AIRPORT AWS,-28.8353,153.5585,BALLINA,False,False,False,Nov 1992 Mar 2026 33.4 100 Y,,,,https://www.bom.gov.au/climate/data/lists_by_element/alphaNSW_139.txt
BOM CDO station list,,139,Rainfall,58205,BALLINA (BURNET ST),-28.8681,153.5667,BALLINA,False,False,False,Jul 2011 Jan 2015 3.6 100 N,,,,https://www.bom.gov.au/climate/data/lists_by_element/alphaNSW_139.txt
BOM CDO station list,,139,Rainfall,58001,BALLINA (CROWLEY VILLAGE),-28.8528,153.5691,BALLINA,False,False,False,Jul 1892 Jun 2009 114.1 97 N,,,,https://www.bom.gov.au/climate/data/lists_by_element/alphaNSW_139.txt
BOM CDO station list,,139,Rainfall,58128,BALLINA WEST,-28.9,153.5833,,False,False,False,Oct 1908 Mar 1945 34.8 95 N,,,,https://www.bom.gov.au/climate/data/lists_by_element/alphaNSW_139.txt
BOM CDO station list,,139,Rainfall,75000,BALLINGAL,-34.2,146.0,GRIFFITH,False,False,False,Feb 1939 Sep 1951 9.0 71 N,,,,https://www.bom.gov.au/climate/data/lists_by_element/alphaNSW_139.txt
BOM CDO station list,,139,Rainfall,68135,BALMORAL,-34.3,150.55,WINGECARRIBEE,False,False,False,May 1889 Jan 1920 25.4 83 N,,,,https://www.bom.gov.au/climate/data/lists_by_element/alphaNSW_139.txt
BOM CDO station list,,139,Rainfall,49089,BALOURA TANK,-32.35,146.35,COBAR,False,False,False,Jan 1891 Aug 1910 19.7 100 N,,,,https://www.bom.gov.au/climate/data/lists_by_element/alphaNSW_139.txt
BOM CDO station list,,139,Rainfall,75001,BALPOOL (NYANG),-35.15,144.2,EDWARD RIVER,False,False,False,Jan 1889 Apr 1950 52.8 86 N,,,,https://www.bom.gov.au/climate/data/lists_by_element/alphaNSW_139.txt
BOM CDO station list,,139,Rainfall,49002,BALRANALD (RSL),-34.6398,143.561,BALRANALD,False,False,False,Jan 1879 Mar 2026 147.3 100 N,,,,https://www.bom.gov.au/climate/data/lists_by_element/alphaNSW_139.txt
BOM CDO station list,,139,Rainfall,49048,BALRANALD (TILLARA),-34.6516,143.0491,BALRANALD,False,False,False,Jun 1901 Dec 2010 107.9 98 N,,,,https://www.bom.gov.au/climate/data/lists_by_element/alphaNSW_139.txt
BOM CDO station list,,139,Rainfall,73060,BANDANGAN,-34.4167,148.1667,HILLTOPS,False,False,False,Apr 1902 May 1917 15.2 100 N,,,,https://www.bom.gov.au/climate/data/lists_by_element/alphaNSW_139.txt
BOM CDO station list,,139,Rainfall,55231,BANDO RIDGE,-31.2167,149.9667,GUNNEDAH,False,False,False,Sep 1891 Feb 1918 23.4 88 N,,,,https://www.bom.gov.au/climate/data/lists_by_element/alphaNSW_139.txt
BOM CDO station list,,139,Rainfall,68090,BANGADILLY,-34.4833,150.1167,WINGECARRIBEE,False,False,False,Aug 1959 Mar 1966 6.6 99 N,,,,https://www.bom.gov.au/climate/data/lists_by_element/alphaNSW_139.txt
BOM CDO station list,,139,Rainfall,58002,BANGALOW (FOWLERS LANE),-28.6477,153.5123,BYRON,False,False,False,Jan 1900 May 2017 52.2 44 N,,,,https://www.bom.gov.au/climate/data/lists_by_element/alphaNSW_139.txt
BOM CDO station list,,139,Rainfall,48003,BANGATE,-29.2667,147.7667,BREWARRINA,False,False,False,Jan 1886 Dec 1969 75.3 90 N,,,,https://www.bom.gov.au/climate/data/lists_by_element/alphaNSW_139.txt
BOM CDO station list,,139,Rainfall,63255,BANGEROO NORTH,-33.6333,148.6333,COWRA,False,False,False,Jan 1918 Feb 1924 6.2 100 N,,,,https://www.bom.gov.au/climate/data/lists_by_element/alphaNSW_139.txt
BOM CDO station list,,139,Rainfall,66137,BANKSTOWN AIRPORT AWS,-33.9176,150.9837,CANTERBURY-BANKSTOWN,False,False,False,Jul 1968 Mar 2026 57.8 100 Y,,,,https://www.bom.gov.au/climate/data/lists_by_element/alphaNSW_139.txt
BOM CDO station list,,139,Rainfall,66003,BANKSTOWN (CONDELL PARK),-33.9167,151.0167,CANTERBURY-BANKSTOWN,False,False,False,Jan 1906 Dec 1979 60.8 82 N,,,,https://www.bom.gov.au/climate/data/lists_by_element/alphaNSW_139.txt
BOM CDO station list,,139,Rainfall,70002,BANNABY (HILLASMOUNT),-34.4315,149.9958,UPPER LACHLAN SHIRE,False,False,False,Jan 1945 Dec 2012 67.4 99 N,,,,https://www.bom.gov.au/climate/data/lists_by_element/alphaNSW_139.txt
BOM CDO station list,,139,Rainfall,70003,BANNISTER STATION,-34.6,149.5,UPPER LACHLAN SHIRE,False,False,False,Jan 1943 Aug 1977 34.5 99 N,,,,https://www.bom.gov.au/climate/data/lists_by_element/alphaNSW_139.txt
BOM CDO station list,,139,Rainfall,54085,BANNOCKBURN,-29.5833,151.0333,INVERELL,False,False,False,Jan 1889 Jan 1925 36.1 100 N,,,,https://www.bom.gov.au/climate/data/lists_by_element/alphaNSW_139.txt
BOM CDO station list,,139,Rainfall,58003,BANYABBA STATE FOREST,-29.35,152.9833,CLARENCE VALLEY,False,False,False,Jan 1940 Oct 1963 22.3 94 N,,,,https://www.bom.gov.au/climate/data/lists_by_element/alphaNSW_139.txt
BOM CDO station list,,139,Rainfall,53007,BARADINE (CALEDONIA),-30.9833,148.8667,WARRUMBUNGLE,False,False,False,Sep 1911 Jun 1961 49.1 98 N,,,,https://www.bom.gov.au/climate/data/lists_by_element/alphaNSW_139.txt
BOM CDO station list,,139,Rainfall,53002,BARADINE FORESTRY,-30.9469,149.0654,WARRUMBUNGLE,False,False,False,Mar 1944 Mar 2026 79.5 97 N,,,,https://www.bom.gov.au/climate/data/lists_by_element/alphaNSW_139.txt
BOM CDO station list,,139,Rainfall,53001,BARADINE POST OFFICE,-30.948,149.0663,WARRUMBUNGLE,False,False,False,May 1881 Apr 2019 137.9 100 N,,,,https://www.bom.gov.au/climate/data/lists_by_element/alphaNSW_139.txt
BOM CDO station list,,139,Rainfall,53075,BARADINE (WOODVILLE),-30.8838,148.8098,COONAMBLE,False,False,False,Sep 1966 Jul 2014 47.8 100 N,,,,https://www.bom.gov.au/climate/data/lists_by_element/alphaNSW_139.txt
BOM CDO station list,,139,Rainfall,65047,BARBIGAL,-32.25,148.7833,DUBBO REGIONAL,False,False,False,Aug 1904 Jan 1924 13.9 71 N,,,,https://www.bom.gov.au/climate/data/lists_by_element/alphaNSW_139.txt
BOM CDO station list,,139,Rainfall,59044,BARCOONGERE STATE FORESTRY,-29.9667,153.2167,COFFS HARBOUR,False,False,False,Jan 1953 Mar 1960 6.3 87 N,,,,https://www.bom.gov.au/climate/data/lists_by_element/alphaNSW_139.txt
BOM CDO station list,,139,Rainfall,74094,BARELLAN (NEREENA),-34.2208,146.4586,NARRANDERA,False,False,False,Dec 1901 Nov 2010 96.3 88 N,,,,https://www.bom.gov.au/climate/data/lists_by_element/alphaNSW_139.txt
BOM CDO station list,,139,Rainfall,74005,BARELLAN POST OFFICE,-34.2849,146.5714,NARRANDERA,False,False,False,Jan 1878 Mar 2026 147.6 99 N,,,,https://www.bom.gov.au/climate/data/lists_by_element/alphaNSW_139.txt
BOM CDO station list,,139,Rainfall,68193,BARGO POST OFFICE,-34.2833,150.5833,WOLLONDILLY,False,False,False,Apr 1902 Sep 1970 21.6 31 N,,,,https://www.bom.gov.au/climate/data/lists_by_element/alphaNSW_139.txt
BOM CDO station list,,139,Rainfall,75002,BARHAM 2,-35.6,144.1,,False,False,False,Jan 1899 Dec 1963 55.2 85 N,,,,https://www.bom.gov.au/climate/data/lists_by_element/alphaNSW_139.txt
BOM CDO station list,,139,Rainfall,75003,BARHAM (THULE STREET),-35.6293,144.1246,MURRAY RIVER,False,False,False,Jun 1897 Feb 2012 111.9 97 N,,,,https://www.bom.gov.au/climate/data/lists_by_element/alphaNSW_139.txt
BOM CDO station list,,139,Rainfall,75084,BARMAH STATE FOREST,-35.6333,144.1167,,False,False,False,Mar 1953 Apr 1980 26.2 96 N,,,,https://www.bom.gov.au/climate/data/lists_by_element/alphaNSW_139.txt
BOM CDO station list,,139,Rainfall,73000,BARMEDMAN POST OFFICE,-34.1442,147.386,BLAND,False,False,False,Jan 1887 Nov 2022 134.8 99 N,,,,https://www.bom.gov.au/climate/data/lists_by_element/alphaNSW_139.txt
BOM CDO station list,,139,Rainfall,48132,BARNATO 1,-31.55,145.0,COBAR,False,False,False,Jan 1881 Jan 1916 31.1 89 N,,,,https://www.bom.gov.au/climate/data/lists_by_element/alphaNSW_139.txt
BOM CDO station list,,139,Rainfall,52034,BARNATO 2,-28.8,149.6,MOREE PLAINS,False,False,False,Jun 1902 Jun 1933 31.1 100 N,,,,https://www.bom.gov.au/climate/data/lists_by_element/alphaNSW_139.txt
BOM CDO station list,,139,Rainfall,48090,BARNATO TANK,-31.6,144.9,COBAR,False,False,False,Dec 1941 Sep 1946 4.6 95 N,,,,https://www.bom.gov.au/climate/data/lists_by_element/alphaNSW_139.txt
BOM CDO station list,,139,Rainfall,61370,BARNSLEY (BENDIGO STREET),-32.9336,151.5792,LAKE MACQUARIE,False,False,False,Jan 1991 Apr 1997 6.3 100 N,,,,https://www.bom.gov.au/climate/data/lists_by_element/alphaNSW_139.txt
BOM CDO station list,,139,Rainfall,74135,BAROOGA,-35.8833,145.8,BERRIGAN,False,False,False,Jan 1895 Dec 1915 21.0 100 N,,,,https://www.bom.gov.au/climate/data/lists_by_element/alphaNSW_139.txt
BOM CDO station list,,139,Rainfall,54119,BARRABA (CAMPO SANTO),-30.3614,150.467,TAMWORTH REGIONAL,False,False,False,May 1966 Oct 1996 30.3 99 N,,,,https://www.bom.gov.au/climate/data/lists_by_element/alphaNSW_139.txt
BOM CDO station list,,139,Rainfall,54003,BARRABA (CLIFTON LANE),-30.3833,150.6083,TAMWORTH REGIONAL,False,False,False,Mar 1881 Mar 2026 144.6 100 N,,,,https://www.bom.gov.au/climate/data/lists_by_element/alphaNSW_139.txt
BOM CDO station list,,139,Rainfall,54024,BARRABA (LOG CABIN),-30.4291,150.5298,TAMWORTH REGIONAL,False,False,False,Jan 1966 Sep 2016 45.8 90 N,,,,https://www.bom.gov.au/climate/data/lists_by_element/alphaNSW_139.txt
BOM CDO station list,,139,Rainfall,54021,BARRABA (MOUNT LINDSAY),-30.3209,150.2734,TAMWORTH REGIONAL,False,False,False,Jan 1886 Dec 2025 131.8 94 N,,,,https://www.bom.gov.au/climate/data/lists_by_element/alphaNSW_139.txt
BOM CDO station list,,139,Rainfall,54023,BARRABA (NERANGHI),-30.2948,150.8103,TAMWORTH REGIONAL,False,False,False,Jan 1908 May 2022 113.5 99 N,,,,https://www.bom.gov.au/climate/data/lists_by_element/alphaNSW_139.txt
BOM CDO station list,,139,Rainfall,54102,BARRABA (ROSEVALE),-30.3735,150.6723,TAMWORTH REGIONAL,False,False,False,Jun 1964 Apr 2025 60.9 100 N,,,,https://www.bom.gov.au/climate/data/lists_by_element/alphaNSW_139.txt
BOM CDO station list,,139,Rainfall,54116,BARRABA (TREBORANE),-30.303,150.6935,TAMWORTH REGIONAL,False,False,False,Jan 1965 Mar 2015 50.3 100 N,,,,https://www.bom.gov.au/climate/data/lists_by_element/alphaNSW_139.txt
BOM CDO station list,,139,Rainfall,63008,BARRALLIER,-34.3,150.0667,WINGECARRIBEE,False,False,False,Jun 1936 Jan 1971 29.3 84 N,,,,https://www.bom.gov.au/climate/data/lists_by_element/alphaNSW_139.txt
BOM CDO station list,,139,Rainfall,68191,BARRALLIER (BELL BIRD),-34.3,150.0667,WINGECARRIBEE,False,False,False,Apr 1971 Apr 1973 2.1 100 N,,,,https://www.bom.gov.au/climate/data/lists_by_element/alphaNSW_139.txt
BOM CDO station list,,139,Rainfall,68217,BARRENGARRY (THE OLD SCHOOL HOUSE),-34.6866,150.5253,SHOALHAVEN,False,False,False,Nov 1982 Mar 2026 40.5 93 N,,,,https://www.bom.gov.au/climate/data/lists_by_element/alphaNSW_139.txt
BOM CDO station list,,139,Rainfall,68178,BARREN GROUNDS NATURE RES.,-34.6833,150.7167,KIAMA,False,False,False,Apr 1973 Oct 1976 3.6 100 N,,,,https://www.bom.gov.au/climate/data/lists_by_element/alphaNSW_139.txt
BOM CDO station list,,139,Rainfall,60049,BARRINGTON (CONEAC),-31.8667,151.8333,MID-COAST,False,False,False,Aug 1961 Aug 1970 5.1 56 N,,,,https://www.bom.gov.au/climate/data/lists_by_element/alphaNSW_139.txt
BOM CDO station list,,139,Rainfall,61418,BARRINGTON TOPS (MOUNT BARRINGTON),-32.04,151.4039,MID-COAST,False,False,False,Nov 2009 Mar 2026 12.6 77 N,,,,https://www.bom.gov.au/climate/data/lists_by_element/alphaNSW_139.txt
BOM CDO station list,,139,Rainfall,48004,BARRINGUN,-29.0128,145.7132,BOURKE,False,False,False,Oct 1881 Dec 2015 129.9 97 N,,,,https://www.bom.gov.au/climate/data/lists_by_element/alphaNSW_139.txt
BOM CDO station list,,139,Rainfall,48197,BARRINGUN (MILANDA),-29.2167,145.5667,BOURKE,False,False,False,Apr 1970 Sep 1970 0.5 100 N,,,,https://www.bom.gov.au/climate/data/lists_by_element/alphaNSW_139.txt
BOM CDO station list,,139,Rainfall,48192,BARROW VALE,-31.65,145.8333,COBAR,False,False,False,Jan 1881 Dec 1918 38.0 100 N,,,,https://www.bom.gov.au/climate/data/lists_by_element/alphaNSW_139.txt
BOM CDO station list,,139,Rainfall,63002,BARRY,-33.65,149.2667,BLAYNEY,False,False,False,Jan 1916 Mar 1979 60.5 96 N,,,,https://www.bom.gov.au/climate/data/lists_by_element/alphaNSW_139.txt
BOM CDO station list,,139,Rainfall,61027,BARSHAM,-31.8,150.9,UPPER HUNTER,False,False,False,Jan 1882 Mar 1927 38.7 85 N,,,,https://www.bom.gov.au/climate/data/lists_by_element/alphaNSW_139.txt
BOM CDO station list,,139,Rainfall,57114,BARYULGIL (CLARENCE RIVER),-29.1967,152.595,CLARENCE VALLEY,False,False,False,Dec 2000 Mar 2026 25.3 100 N,,,,https://www.bom.gov.au/climate/data/lists_by_element/alphaNSW_139.txt
BOM CDO station list,,139,Rainfall,57120,BARYULGIL (MOOKIMA),-29.1961,152.72,CLARENCE VALLEY,False,False,False,Jul 1987 Feb 1995 7.4 97 N,,,,https://www.bom.gov.au/climate/data/lists_by_element/alphaNSW_139.txt
BOM CDO station list,,139,Rainfall,57051,BARYULGIL (MOUNTAIN VIEW),-29.1912,152.5905,CLARENCE VALLEY,False,False,False,Jul 1961 Sep 2009 46.3 96 N,,,,https://www.bom.gov.au/climate/data/lists_by_element/alphaNSW_139.txt
BOM CDO station list,,139,Rainfall,57077,BARYULGIL (YUGILBAR),-29.2,152.5,CLARENCE VALLEY,False,False,False,Dec 1964 Jul 1979 14.7 100 N,,,,https://www.bom.gov.au/climate/data/lists_by_element/alphaNSW_139.txt
BOM CDO station list,,139,Rainfall,63003,BASSETT DOWNS,-33.75,148.7,COWRA,False,False,False,Jan 1900 Dec 1968 68.5 99 N,,,,https://www.bom.gov.au/climate/data/lists_by_element/alphaNSW_139.txt
BOM CDO station list,,139,Rainfall,61378,BATEAU BAY (ROTHERHAM ST),-33.3806,151.4544,CENTRAL COAST,False,False,False,Oct 1993 Oct 1997 4.1 100 N,,,,https://www.bom.gov.au/climate/data/lists_by_element/alphaNSW_139.txt
BOM CDO station list,,139,Rainfall,69052,BATEMANS BAY - BUCKENBOWRA,-35.7343,150.0508,EUROBODALLA,False,False,False,Jan 1943 Mar 2026 83.2 100 N,,,,https://www.bom.gov.au/climate/data/lists_by_element/alphaNSW_139.txt
BOM CDO station list,,139,Rainfall,69134,BATEMANS BAY (CATALINA COUNTRY CLUB),-35.7234,150.1872,EUROBODALLA,False,False,False,Jan 1985 Mar 2026 34.8 84 N,,,,https://www.bom.gov.au/climate/data/lists_by_element/alphaNSW_139.txt
BOM CDO station list,,139,Rainfall,69001,BATEMANS BAY POST OFFICE,-35.7086,150.1769,EUROBODALLA,False,False,False,Nov 1895 Feb 1996 100.3 100 N,,,,https://www.bom.gov.au/climate/data/lists_by_element/alphaNSW_139.txt
BOM CDO station list,,139,Rainfall,63305,BATHURST AG COMPARISON,-33.43,149.555,BATHURST REGIONAL,False,False,False,May 1996 Jun 2002 1.9 31 N,,,,https://www.bom.gov.au/climate/data/lists_by_element/alphaNSW_139.txt
BOM CDO station list,,139,Rainfall,63309,BATHURST AGRICULTURAL STATION,-33.4287,149.5559,BATHURST REGIONAL,False,False,False,Dec 2025 Mar 2026 0.3 100 Y,,,,https://www.bom.gov.au/climate/data/lists_by_element/alphaNSW_139.txt
BOM CDO station list,,139,Rainfall,63005,BATHURST AG STATION COMPARISON,-33.4288,149.5559,BATHURST REGIONAL,False,False,False,Jul 1908 Dec 2025 117.5 100 N,,,,https://www.bom.gov.au/climate/data/lists_by_element/alphaNSW_139.txt
BOM CDO station list,,139,Rainfall,63291,BATHURST AIRPORT AWS,-33.4119,149.654,BATHURST REGIONAL,False,False,False,Jun 1994 Mar 2026 31.8 100 Y,,,,https://www.bom.gov.au/climate/data/lists_by_element/alphaNSW_139.txt
BOM CDO station list,,139,Rainfall,63225,BATHURST (FREEMANTLE (BIG BULLEN)),-33.1208,149.365,BATHURST REGIONAL,False,False,False,Aug 2004 Oct 2004 0.3 100 N,,,,https://www.bom.gov.au/climate/data/lists_by_element/alphaNSW_139.txt
BOM CDO station list,,139,Rainfall,63004,BATHURST GAOL,-33.4167,149.55,BATHURST REGIONAL,False,False,False,Jan 1858 May 1983 124.3 99 N,,,,https://www.bom.gov.au/climate/data/lists_by_element/alphaNSW_139.txt
BOM CDO station list,,139,Rainfall,63187,BATHURST (MACHATTIE PARK),-33.4,149.6,BATHURST REGIONAL,False,False,False,Nov 1896 Jan 1927 30.3 100 N,,,,https://www.bom.gov.au/climate/data/lists_by_element/alphaNSW_139.txt
BOM CDO station list,,139,Rainfall,63287,BATHURST STANLEY STREET (MACQUARIE RIVER,-33.4107,149.5843,BATHURST REGIONAL,False,False,False,Dec 2000 Dec 2025 24.8 99 N,,,,https://www.bom.gov.au/climate/data/lists_by_element/alphaNSW_139.txt
BOM CDO station list,,139,Rainfall,63306,BATHURST (THE ROCKS),-33.422,149.4057,BATHURST REGIONAL,False,False,False,Apr 1996 Feb 2020 11.4 48 N,,,,https://www.bom.gov.au/climate/data/lists_by_element/alphaNSW_139.txt
BOM CDO station list,,139,Rainfall,72082,BATLOW (HALLOWEEN),-35.5528,147.9827,SNOWY VALLEYS,False,False,False,Mar 1967 Dec 2025 57.1 97 N,,,,https://www.bom.gov.au/climate/data/lists_by_element/alphaNSW_139.txt
BOM CDO station list,,139,Rainfall,72004,BATLOW POST OFFICE,-35.5203,148.1453,SNOWY VALLEYS,False,False,False,Mar 1886 Mar 2026 139.5 100 N,,,,https://www.bom.gov.au/climate/data/lists_by_element/alphaNSW_139.txt
BOM CDO station list,,139,Rainfall,72005,BATLOW (VELVIN),-35.5,148.1,SNOWY VALLEYS,False,False,False,Jun 1947 May 1957 10.0 100 N,,,,https://www.bom.gov.au/climate/data/lists_by_element/alphaNSW_139.txt
BOM CDO station list,,139,Rainfall,67109,BAULKHAM HILLS EUCALYPTUS CT,-33.7678,150.9814,THE HILLS SHIRE,False,False,False,Dec 2000 Mar 2026 25.3 100 N,,,,https://www.bom.gov.au/climate/data/lists_by_element/alphaNSW_139.txt
BOM CDO station list,,139,Rainfall,69124,BAWLEY POINT,-35.5167,150.3833,SHOALHAVEN,False,False,False,Jan 1913 Jun 1920 6.9 92 N,,,,https://www.bom.gov.au/climate/data/lists_by_element/alphaNSW_139.txt
BOM CDO station list,,139,Rainfall,66127,BEACON HILL RAAF,-33.75,151.25,NORTHERN BEACHES,True,True,False,Oct 1968 Oct 1973 5.1 100 N,,,,https://www.bom.gov.au/climate/data/lists_by_element/alphaNSW_139.txt
BOM CDO station list,,139,Rainfall,64000,BEARBUNG (ALLER),-31.6347,148.8464,GILGANDRA,False,False,False,Jun 1924 Jul 2018 83.0 88 N,,,,https://www.bom.gov.au/climate/data/lists_by_element/alphaNSW_139.txt
BOM CDO station list,,139,Rainfall,68247,BEAUMONT (THE CEDARS),-34.768,150.5622,SHOALHAVEN,False,False,False,Jan 1993 Mar 2026 33.3 100 N,,,,https://www.bom.gov.au/climate/data/lists_by_element/alphaNSW_139.txt
BOM CDO station list,,139,Rainfall,74006,BECKOM (STAWELL ST),-34.3251,146.957,COOLAMON,False,False,False,Jan 1909 Dec 2015 89.4 84 N,,,,https://www.bom.gov.au/climate/data/lists_by_element/alphaNSW_139.txt
BOM CDO station list,,139,Rainfall,74261,BECKOM (WALLEROOBIE (GOLDEN VALLEY)),-34.531,146.9806,COOLAMON,False,False,False,Mar 2003 Mar 2026 23.0 100 N,,,,https://www.bom.gov.au/climate/data/lists_by_element/alphaNSW_139.txt
BOM CDO station list,,139,Rainfall,50003,BEDGEREBONG POST OFFICE,-33.3667,147.7,FORBES,False,False,False,Feb 1951 Oct 1988 36.5 97 N,,,,https://www.bom.gov.au/climate/data/lists_by_element/alphaNSW_139.txt
BOM CDO station list,,139,Rainfall,49098,BEDOOBA,-32.3333,145.9167,COBAR,False,False,False,Apr 1881 Dec 1924 43.8 100 N,,,,https://www.bom.gov.au/climate/data/lists_by_element/alphaNSW_139.txt
BOM CDO station list,,139,Rainfall,54135,BEEBO (MAURO),-28.7216,150.9285,INVERELL,False,False,False,Jan 1973 Aug 1998 24.8 96 N,,,,https://www.bom.gov.au/climate/data/lists_by_element/alphaNSW_139.txt
BOM CDO station list,,139,Rainfall,66129,BEECROFT,-33.75,151.0667,HORNSBY,False,False,False,Feb 1905 Dec 1962 57.6 99 N,,,,https://www.bom.gov.au/climate/data/lists_by_element/alphaNSW_139.txt
BOM CDO station list,,139,Rainfall,67051,BEECROFT 1,-33.7,151.0,THE HILLS SHIRE,False,False,False,Sep 1888 Mar 1920 31.6 100 N,,,,https://www.bom.gov.au/climate/data/lists_by_element/alphaNSW_139.txt
BOM CDO station list,,139,Rainfall,52035,BEETHOVEN (ROWEND),-29.7,148.6,WALGETT,False,False,False,Jan 1936 Dec 1940 5.0 100 N,,,,https://www.bom.gov.au/climate/data/lists_by_element/alphaNSW_139.txt
BOM CDO station list,,139,Rainfall,69139,BEGA AWS,-36.6722,149.8191,BEGA VALLEY,False,False,False,Jun 1994 Mar 2026 31.8 100 Y,,,,https://www.bom.gov.au/climate/data/lists_by_element/alphaNSW_139.txt
BOM CDO station list,,139,Rainfall,69002,BEGA (NEWTOWN ROAD),-36.6883,149.838,BEGA VALLEY,False,False,False,Mar 1879 Mar 2026 142.3 97 N,,,,https://www.bom.gov.au/climate/data/lists_by_element/alphaNSW_139.txt
BOM CDO station list,,139,Rainfall,73004,BEHTUNGRA POST OFFICE,-34.7667,147.8667,JUNEE,False,False,False,May 1889 Dec 1968 39.3 49 N,,,,https://www.bom.gov.au/climate/data/lists_by_element/alphaNSW_139.txt
BOM CDO station list,,139,Rainfall,65043,BELAH VIEW,-33.3,148.1,FORBES,False,False,False,Aug 1938 Jul 1947 8.6 95 N,,,,https://www.bom.gov.au/climate/data/lists_by_element/alphaNSW_139.txt
BOM CDO station list,,139,Rainfall,68006,BELANGLO STATE FOREST,-34.5367,150.2528,WINGECARRIBEE,False,False,False,Jan 1940 Sep 1990 50.4 99 N,,,,https://www.bom.gov.au/climate/data/lists_by_element/alphaNSW_139.txt
BOM CDO station list,,139,Rainfall,51002,BELARINGAR STATION,-31.7833,147.6,WARREN,False,False,False,Jul 1881 Apr 1978 96.8 100 N,,,,https://www.bom.gov.au/climate/data/lists_by_element/alphaNSW_139.txt
BOM CDO station list,,139,Rainfall,70090,BELCONNEN (HOLT (PINE RIDGE)),-35.2389,148.9958,,False,False,False,Oct 1999 Aug 2007 7.9 100 N,,,,https://www.bom.gov.au/climate/data/lists_by_element/alphaNSW_139.txt
BOM CDO station list,,139,Rainfall,70059,BELCONNEN (WEETANGERRA),-35.2439,148.9942,,False,False,False,Feb 1886 Dec 1994 102.7 94 N,,,,https://www.bom.gov.au/climate/data/lists_by_element/alphaNSW_139.txt
BOM CDO station list,,139,Rainfall,74205,BELFRAYDEN (NORTH MAYFIELD),-35.162,147.0274,WAGGA WAGGA,False,False,False,May 1968 Mar 2026 57.9 100 N,,,,https://www.bom.gov.au/climate/data/lists_by_element/alphaNSW_139.txt
BOM CDO station list,,139,Rainfall,63200,BELGRAVIA,-33.2,149.1167,CABONNE,False,False,False,Aug 1903 Jun 1924 20.9 100 N,,,,https://www.bom.gov.au/climate/data/lists_by_element/alphaNSW_139.txt
BOM CDO station list,,139,Rainfall,68228,BELLAMBI AWS,-34.3692,150.9291,WOLLONGONG,False,False,False,Apr 1997 Mar 2026 29.0 100 Y,,,,https://www.bom.gov.au/climate/data/lists_by_element/alphaNSW_139.txt
BOM CDO station list,,139,Rainfall,60000,BELLANGRY STATE FOREST 524,-31.3167,152.5833,PORT MACQUARIE-HASTINGS,False,False,False,Sep 1950 Sep 1990 25.5 64 N,,,,https://www.bom.gov.au/climate/data/lists_by_element/alphaNSW_139.txt
BOM CDO station list,,139,Rainfall,73111,BELLARWI (GLEN AVON),-34.1833,147.2,BLAND,False,False,False,Apr 1968 Jan 1971 2.8 97 N,,,,https://www.bom.gov.au/climate/data/lists_by_element/alphaNSW_139.txt
BOM CDO station list,,139,Rainfall,53035,BELLATA (ABERFELDIE),-29.8401,149.3207,NARRABRI,False,False,False,Jan 1902 Mar 2026 124.2 100 N,,,,https://www.bom.gov.au/climate/data/lists_by_element/alphaNSW_139.txt
BOM CDO station list,,139,Rainfall,53086,BELLATA (PLAIN ACRES),-30.0,149.8,NARRABRI,False,False,False,May 1968 Oct 1978 10.3 98 N,,,,https://www.bom.gov.au/climate/data/lists_by_element/alphaNSW_139.txt
BOM CDO station list,,139,Rainfall,53003,BELLATA POST OFFICE,-29.9182,149.7919,NARRABRI,False,False,False,Dec 1912 Feb 2026 111.3 98 N,,,,https://www.bom.gov.au/climate/data/lists_by_element/alphaNSW_139.txt
BOM CDO station list,,139,Rainfall,68196,BELLAWONGARAH,-34.7667,150.6333,SHOALHAVEN,False,False,False,Nov 1903 Dec 1919 15.8 98 N,,,,https://www.bom.gov.au/climate/data/lists_by_element/alphaNSW_139.txt
BOM CDO station list,,139,Rainfall,59000,BELLBROOK (EAST STREET),-30.8141,152.5129,KEMPSEY,False,False,False,May 1889 Mar 2017 127.1 99 N,,,,https://www.bom.gov.au/climate/data/lists_by_element/alphaNSW_139.txt
BOM CDO station list,,139,Rainfall,59122,BELLBROOK (MACLEAY RIVER),-30.8217,152.5067,KEMPSEY,False,False,False,Jan 2001 Mar 2026 24.8 98 N,,,,https://www.bom.gov.au/climate/data/lists_by_element/alphaNSW_139.txt
BOM CDO station list,,139,Rainfall,59096,BELLBROOK (NULLA NULLA CRK HMSD),-30.75,152.5,KEMPSEY,False,False,False,Apr 1970 Mar 1974 4.0 100 N,,,,https://www.bom.gov.au/climate/data/lists_by_element/alphaNSW_139.txt
BOM CDO station list,,139,Rainfall,60044,BELLBROOK (NUNDLE),-31.5833,151.2667,TAMWORTH REGIONAL,False,False,False,Aug 1961 Dec 1970 9.4 100 N,,,,https://www.bom.gov.au/climate/data/lists_by_element/alphaNSW_139.txt
BOM CDO station list,,139,Rainfall,59059,BELLBROOK (WILLI WILLI),-30.95,152.4167,KEMPSEY,False,False,False,Jan 1959 Mar 1982 18.6 80 N,,,,https://www.bom.gov.au/climate/data/lists_by_element/alphaNSW_139.txt
BOM CDO station list,,139,Rainfall,48007,BELLENBAR (FORDS BRIDGE),-29.595,145.555,BOURKE,False,False,False,Aug 1948 Oct 1989 38.1 92 N,,,,https://www.bom.gov.au/climate/data/lists_by_element/alphaNSW_139.txt
BOM CDO station list,,139,Rainfall,74136,BELLEVUE 1,-35.25,146.5,LOCKHART,False,False,False,Jan 1895 Jul 1926 29.6 94 N,,,,https://www.bom.gov.au/climate/data/lists_by_element/alphaNSW_139.txt
BOM CDO station list,,139,Rainfall,59130,BELLINGEN (CHELSEA),-30.4211,152.8089,BELLINGEN,False,False,False,Apr 1982 Dec 1990 8.7 99 N,,,,https://www.bom.gov.au/climate/data/lists_by_element/alphaNSW_139.txt
BOM CDO station list,,139,Rainfall,59134,BELLINGEN (HYDE STREET),-30.4523,152.9008,BELLINGEN,False,False,False,Sep 1992 Jan 2015 20.4 91 N,,,,https://www.bom.gov.au/climate/data/lists_by_element/alphaNSW_139.txt
BOM CDO station list,,139,Rainfall,59001,BELLINGEN POST OFFICE,-30.4519,152.8979,BELLINGEN,False,False,False,Feb 1899 Oct 2002 103.6 100 N,,,,https://www.bom.gov.au/climate/data/lists_by_element/alphaNSW_139.txt
BOM CDO station list,,139,Rainfall,59094,BELLINGEN (THE OBSERVATORY),-30.4167,152.8667,BELLINGEN,False,False,False,Mar 1985 Feb 1989 4.0 100 N,,,,https://www.bom.gov.au/climate/data/lists_by_element/alphaNSW_139.txt
BOM CDO station list,,139,Rainfall,61080,BELLTREES 1,-31.9833,151.15,UPPER HUNTER,False,False,False,Jan 1879 Dec 1941 63.0 100 N,,,,https://www.bom.gov.au/climate/data/lists_by_element/alphaNSW_139.txt
BOM CDO station list,,139,Rainfall,61098,BELLTREES HOMESTEAD,-32.0,151.1333,UPPER HUNTER,False,False,False,Mar 1887 Nov 1978 49.7 54 N,,,,https://www.bom.gov.au/climate/data/lists_by_element/alphaNSW_139.txt
BOM CDO station list,,139,Rainfall,59150,BELLWOOD (NAMBUCCA HEADS (NAMBUCCA RESOR,-30.6764,152.9822,NAMBUCCA VALLEY,False,False,False,Mar 2008 Nov 2024 16.8 100 N,,,,https://www.bom.gov.au/climate/data/lists_by_element/alphaNSW_139.txt
BOM CDO station list,,139,Rainfall,61367,BELMONT NORTH (WOMMARA AVE),-33.0228,151.6728,LAKE MACQUARIE,False,False,False,Apr 1990 Nov 1997 1.7 22 N,,,,https://www.bom.gov.au/climate/data/lists_by_element/alphaNSW_139.txt
BOM CDO station list,,139,Rainfall,52036,BELMONT (ST.ELMO),-29.3,149.3,MOREE PLAINS,False,False,False,Jul 1925 Nov 1947 22.4 100 N,,,,https://www.bom.gov.au/climate/data/lists_by_element/alphaNSW_139.txt
BOM CDO station list,,139,Rainfall,61299,BELMONT WWTP,-33.0464,151.6711,LAKE MACQUARIE,False,False,False,Jan 1990 Dec 2018 28.1 97 N,,,,https://www.bom.gov.au/climate/data/lists_by_element/alphaNSW_139.txt
BOM CDO station list,,139,Rainfall,71038,BELOKA (ALPINE MEADOWS),-36.5608,148.7053,SNOWY MONARO REGIONAL,False,False,False,May 1887 Jul 2010 29.9 24 N,,,,https://www.bom.gov.au/climate/data/lists_by_element/alphaNSW_139.txt
BOM CDO station list,,139,Rainfall,63148,BELOWRA,-33.7167,150.0,LITHGOW CITY,False,False,False,Sep 1959 Apr 1964 4.3 91 N,,,,https://www.bom.gov.au/climate/data/lists_by_element/alphaNSW_139.txt
BOM CDO station list,,139,Rainfall,69037,BELOWRA STATION,-36.201,149.7106,EUROBODALLA,False,False,False,Jan 1938 Dec 2019 81.9 100 N,,,,https://www.bom.gov.au/climate/data/lists_by_element/alphaNSW_139.txt
BOM CDO station list,,139,Rainfall,66188,BELROSE (EVELYN PLACE),-33.7402,151.2173,NORTHERN BEACHES,True,True,False,Jul 1991 Apr 2024 32.8 100 N,,,,https://www.bom.gov.au/climate/data/lists_by_element/alphaNSW_139.txt
BOM CDO station list,,139,Rainfall,69003,BEMBOKA POST OFFICE,-36.6277,149.5706,BEGA VALLEY,False,False,False,Nov 1889 Mar 2026 135.7 99 N,,,,https://www.bom.gov.au/climate/data/lists_by_element/alphaNSW_139.txt
BOM CDO station list,,139,Rainfall,69133,BEMBOKA (THE KNOB),-36.6631,149.5139,BEGA VALLEY,False,False,False,Apr 2006 Mar 2026 18.4 92 N,,,,https://www.bom.gov.au/climate/data/lists_by_element/alphaNSW_139.txt
BOM CDO station list,,139,Rainfall,69004,BENANDRA STATE FOREST,-35.6,150.2,EUROBODALLA,False,False,False,Jun 1936 Jun 1959 23.1 100 N,,,,https://www.bom.gov.au/climate/data/lists_by_element/alphaNSW_139.txt
BOM CDO station list,,139,Rainfall,49001,BENANEE,-34.5,143.0,BALRANALD,False,False,False,Jul 1929 Dec 1953 24.5 100 N,,,,https://www.bom.gov.au/climate/data/lists_by_element/alphaNSW_139.txt
BOM CDO station list,,139,Rainfall,73001,BENANGAROO,-34.85,148.4,HILLTOPS,False,False,False,Jan 1915 Dec 1951 36.9 100 N,,,,https://www.bom.gov.au/climate/data/lists_by_element/alphaNSW_139.txt
BOM CDO station list,,139,Rainfall,69025,BENDALONG JACARANDA AV,-35.25,150.5333,SHOALHAVEN,False,False,False,Jan 1971 Apr 1989 3.2 17 N,,,,https://www.bom.gov.au/climate/data/lists_by_element/alphaNSW_139.txt
BOM CDO station list,,139,Rainfall,68229,BENDALONG STP,-35.2439,150.5097,SHOALHAVEN,False,False,False,May 1939 Feb 2023 79.1 94 N,,,,https://www.bom.gov.au/climate/data/lists_by_element/alphaNSW_139.txt
BOM CDO station list,,139,Rainfall,55296,BENDEMEER (BANALASTA),-30.7669,151.2475,TAMWORTH REGIONAL,False,False,False,Jan 1974 Jun 2012 38.5 100 N,,,,https://www.bom.gov.au/climate/data/lists_by_element/alphaNSW_139.txt
BOM CDO station list,,139,Rainfall,55111,BENDEMEER (BIRALEE),-30.7167,151.2167,TAMWORTH REGIONAL,False,False,False,Jan 1956 Dec 1973 16.5 92 N,,,,https://www.bom.gov.au/climate/data/lists_by_element/alphaNSW_139.txt
BOM CDO station list,,139,Rainfall,55308,BENDEMEER (BONNA),-30.8829,151.1619,TAMWORTH REGIONAL,False,False,False,Nov 2012 Mar 2026 13.4 100 N,,,,https://www.bom.gov.au/climate/data/lists_by_element/alphaNSW_139.txt
BOM CDO station list,,139,Rainfall,55112,BENDEMEER (BRAEMAR),-30.8,151.1833,TAMWORTH REGIONAL,False,False,False,Sep 1958 Feb 1971 12.5 100 N,,,,https://www.bom.gov.au/climate/data/lists_by_element/alphaNSW_139.txt
BOM CDO station list,,139,Rainfall,55004,BENDEMEER (CAROLINE ST),-30.8833,151.1546,TAMWORTH REGIONAL,False,False,False,Mar 1879 May 2015 135.7 100 N,,,,https://www.bom.gov.au/climate/data/lists_by_element/alphaNSW_139.txt
BOM CDO station list,,139,Rainfall,55096,BENDEMEER (DANEHURST),-30.6767,151.18,TAMWORTH REGIONAL,False,False,False,Oct 1958 Oct 1989 29.9 96 N,,,,https://www.bom.gov.au/climate/data/lists_by_element/alphaNSW_139.txt
BOM CDO station list,,139,Rainfall,55109,BENDEMEER (GLENCLAIR),-30.7992,151.1089,TAMWORTH REGIONAL,False,False,False,Jan 1958 Jun 2015 57.4 100 N,,,,https://www.bom.gov.au/climate/data/lists_by_element/alphaNSW_139.txt
BOM CDO station list,,139,Rainfall,55124,BENDEMEER (GLENDON),-30.85,151.05,TAMWORTH REGIONAL,False,False,False,Sep 1958 Sep 1971 13.0 99 N,,,,https://www.bom.gov.au/climate/data/lists_by_element/alphaNSW_139.txt
BOM CDO station list,,139,Rainfall,55126,BENDEMEER (GLEN MORANGIE),-30.8667,151.2333,TAMWORTH REGIONAL,False,False,False,Sep 1958 Feb 1967 8.5 100 N,,,,https://www.bom.gov.au/climate/data/lists_by_element/alphaNSW_139.txt
BOM CDO station list,,139,Rainfall,55110,BENDEMEER (LONGFORD),-30.7667,151.1167,TAMWORTH REGIONAL,False,False,False,Jan 1959 Apr 1973 13.3 93 N,,,,https://www.bom.gov.au/climate/data/lists_by_element/alphaNSW_139.txt
BOM CDO station list,,139,Rainfall,55113,BENDEMEER (SUNNYSIDE),-30.8,151.3,TAMWORTH REGIONAL,False,False,False,Feb 1956 Dec 1973 11.9 66 N,,,,https://www.bom.gov.au/climate/data/lists_by_element/alphaNSW_139.txt
BOM CDO station list,,139,Rainfall,55095,BENDEMEER (WEST RETREAT),-30.6333,151.1,TAMWORTH REGIONAL,False,False,False,Jan 1959 Dec 1972 13.2 94 N,,,,https://www.bom.gov.au/climate/data/lists_by_element/alphaNSW_139.txt
BOM CDO station list,,139,Rainfall,55115,BENDEMEER (YARRAGOOL),-30.75,151.15,TAMWORTH REGIONAL,False,False,False,Jan 1959 Jul 1972 13.3 97 N,,,,https://www.bom.gov.au/climate/data/lists_by_element/alphaNSW_139.txt
BOM CDO station list,,139,Rainfall,73002,BENDICK,-34.2,148.4,HILLTOPS,False,False,False,Sep 1929 Sep 1950 19.8 94 N,,,,https://www.bom.gov.au/climate/data/lists_by_element/alphaNSW_139.txt
BOM CDO station list,,139,Rainfall,70316,BENDORA DAM,-35.4424,148.8296,,False,False,False,Jan 1974 Oct 2018 39.9 89 N,,,,https://www.bom.gov.au/climate/data/lists_by_element/alphaNSW_139.txt
BOM CDO station list,,139,Rainfall,75005,BENEREMBAH,-34.5,145.8,CARRATHOOL,False,False,False,Jan 1879 Dec 1973 82.8 87 N,,,,https://www.bom.gov.au/climate/data/lists_by_element/alphaNSW_139.txt
BOM CDO station list,,139,Rainfall,56143,BEN LOMOND,-30.0,151.6,ARMIDALE REGIONAL,False,False,False,Jul 1883 Nov 1934 36.5 71 N,,,,https://www.bom.gov.au/climate/data/lists_by_element/alphaNSW_139.txt
BOM CDO station list,,139,Rainfall,56245,BEN LOMOND (BEULAH),-29.9594,151.605,ARMIDALE REGIONAL,False,False,False,Sep 2013 Mar 2026 12.6 100 N,,,,https://www.bom.gov.au/climate/data/lists_by_element/alphaNSW_139.txt
BOM CDO station list,,139,Rainfall,56138,BEN LOMOND (EMILY PARK),-29.9833,151.65,ARMIDALE REGIONAL,False,False,False,Jan 1959 Sep 1970 11.6 99 N,,,,https://www.bom.gov.au/climate/data/lists_by_element/alphaNSW_139.txt
BOM CDO station list,,139,Rainfall,56139,BEN LOMOND (KOALA),-29.9465,151.6066,GLEN INNES SEVERN,False,False,False,Jan 1959 Mar 2025 66.1 100 N,,,,https://www.bom.gov.au/climate/data/lists_by_element/alphaNSW_139.txt
BOM CDO station list,,139,Rainfall,56189,BEN LOMOND (MOUNT PLEASANT),-30.0167,151.7,ARMIDALE REGIONAL,False,False,False,Feb 1966 Jan 1974 6.9 86 N,,,,https://www.bom.gov.au/climate/data/lists_by_element/alphaNSW_139.txt
BOM CDO station list,,139,Rainfall,56137,BEN LOMOND (SPRINGWOOD),-29.9333,151.5833,INVERELL,False,False,False,Aug 1958 May 1970 11.8 100 N,,,,https://www.bom.gov.au/climate/data/lists_by_element/alphaNSW_139.txt
BOM CDO station list,,139,Rainfall,58078,BENTLEY,-28.7777,153.1133,RICHMOND VALLEY,False,False,False,Jun 1964 Feb 2014 49.2 99 N,,,,https://www.bom.gov.au/climate/data/lists_by_element/alphaNSW_139.txt
BOM CDO station list,,139,Rainfall,58202,BENTLEY (BACK CREEK),-28.7406,153.075,RICHMOND VALLEY,False,False,False,Dec 2000 Mar 2026 25.2 99 N,,,,https://www.bom.gov.au/climate/data/lists_by_element/alphaNSW_139.txt
BOM CDO station list,,139,Rainfall,63013,BERAMBING,-33.5366,150.4413,BLUE MOUNTAINS,False,False,False,Apr 1943 Nov 2025 79.1 96 N,,,,https://www.bom.gov.au/climate/data/lists_by_element/alphaNSW_139.txt
BOM CDO station list,,139,Rainfall,46054,BERAWINIA DOWNS,-29.1833,143.5333,UNINCORPORATED - FAR WEST AREA,False,False,False,Jan 1903 Apr 1919 16.3 100 N,,,,https://www.bom.gov.au/climate/data/lists_by_element/alphaNSW_139.txt
BOM CDO station list,,139,Rainfall,68110,BERKELEY (NORTHCLIFFE DRIVE),-34.483,150.8555,WOLLONGONG,False,False,False,Nov 1962 Sep 2022 59.9 100 N,,,,https://www.bom.gov.au/climate/data/lists_by_element/alphaNSW_139.txt
BOM CDO station list,,139,Rainfall,67106,BERKSHIRE PARK FIRST RD,-33.6708,150.7972,PENRITH,False,False,False,Jul 1992 Mar 1995 2.8 100 N,,,,https://www.bom.gov.au/climate/data/lists_by_element/alphaNSW_139.txt
BOM CDO station list,,139,Rainfall,69005,BERMAGUI SOUTH (YOUNG STREET),-36.4269,150.0787,BEGA VALLEY,False,False,False,Nov 1924 Jan 2016 88.8 97 N,,,,https://www.bom.gov.au/climate/data/lists_by_element/alphaNSW_139.txt
BOM CDO station list,,139,Rainfall,67052,BEROWRA (GOODWYN ROAD),-33.625,151.1491,HORNSBY,False,False,False,Apr 1903 Jan 2017 70.3 62 N,,,,https://www.bom.gov.au/climate/data/lists_by_element/alphaNSW_139.txt
BOM CDO station list,,139,Rainfall,70096,BERREBANGALO,-34.9,149.2,YASS VALLEY,False,False,False,Sep 1891 Oct 1949 58.2 100 N,,,,https://www.bom.gov.au/climate/data/lists_by_element/alphaNSW_139.txt
BOM CDO station list,,139,Rainfall,71022,BERRIDALE (BOLTON STREET),-36.3676,148.8274,SNOWY MONARO REGIONAL,False,False,False,Jan 1947 Mar 2026 78.3 99 N,,,,https://www.bom.gov.au/climate/data/lists_by_element/alphaNSW_139.txt
BOM CDO station list,,139,Rainfall,71043,BERRIDALE (EUCUMBENE TROUT FARM),-36.2743,148.7182,SNOWY MONARO REGIONAL,False,False,False,May 1973 Feb 2012 38.7 99 N,,,,https://www.bom.gov.au/climate/data/lists_by_element/alphaNSW_139.txt
BOM CDO station list,,139,Rainfall,71001,BERRIDALE PUBLIC SCHOOL,-36.4,148.8,SNOWY MONARO REGIONAL,False,False,False,Nov 1926 Feb 1947 11.8 58 N,,,,https://www.bom.gov.au/climate/data/lists_by_element/alphaNSW_139.txt
BOM CDO station list,,139,Rainfall,71028,BERRIDALE (RAVENS HEAD),-36.4167,148.8667,SNOWY MONARO REGIONAL,False,False,False,Oct 1899 Dec 1931 30.8 95 N,,,,https://www.bom.gov.au/climate/data/lists_by_element/alphaNSW_139.txt
BOM CDO station list,,139,Rainfall,71027,BERRIDALE (WOOLWAY),-36.4,148.8,SNOWY MONARO REGIONAL,False,False,False,Jan 1908 May 1937 29.4 100 N,,,,https://www.bom.gov.au/climate/data/lists_by_element/alphaNSW_139.txt
BOM CDO station list,,139,Rainfall,74255,BERRIGAN (NEW SHILOH),-35.5879,145.7669,BERRIGAN,False,False,False,May 1994 Jan 2013 18.1 96 N,,,,https://www.bom.gov.au/climate/data/lists_by_element/alphaNSW_139.txt
BOM CDO station list,,139,Rainfall,74009,BERRIGAN POST OFFICE,-35.6576,145.8124,BERRIGAN,False,False,False,Jan 1875 Jan 2016 141.1 100 N,,,,https://www.bom.gov.au/climate/data/lists_by_element/alphaNSW_139.txt
BOM CDO station list,,139,Rainfall,68092,BERRIMA (HILLVIEW),-34.4833,150.3667,WINGECARRIBEE,False,False,False,Jul 1959 Oct 1967 8.3 99 N,,,,https://www.bom.gov.au/climate/data/lists_by_element/alphaNSW_139.txt
BOM CDO station list,,139,Rainfall,68186,BERRIMA WEST (MEDWAY (WOMBAT CREEK)),-34.4839,150.2867,WINGECARRIBEE,False,False,False,May 1970 Jul 2023 52.7 99 N,,,,https://www.bom.gov.au/climate/data/lists_by_element/alphaNSW_139.txt
BOM CDO station list,,139,Rainfall,68091,BERRIMA WEST POST OFFICE,-34.4833,150.2667,WINGECARRIBEE,False,False,False,Aug 1959 Dec 1969 10.2 98 N,,,,https://www.bom.gov.au/climate/data/lists_by_element/alphaNSW_139.txt
BOM CDO station list,,139,Rainfall,74227,BERRY JERRY (GNADBRO),-35.0167,147.0333,WAGGA WAGGA,False,False,False,Jan 1882 Jul 1911 29.5 100 N,,,,https://www.bom.gov.au/climate/data/lists_by_element/alphaNSW_139.txt
BOM CDO station list,,139,Rainfall,68003,BERRY (MUSUEM),-34.7751,150.6985,SHOALHAVEN,False,False,False,Jul 1886 Mar 2026 133.9 96 N,,,,https://www.bom.gov.au/climate/data/lists_by_element/alphaNSW_139.txt
BOM CDO station list,,139,Rainfall,73003,BERTHONG,-34.5,148.1,COOTAMUNDRA-GUNDAGAI REGIONAL,False,False,False,Jan 1886 Dec 1952 66.5 99 N,,,,https://www.bom.gov.au/climate/data/lists_by_element/alphaNSW_139.txt
BOM CDO station list,,139,Rainfall,73103,BETHUNGRA PARK,-34.8,147.9,JUNEE,False,False,False,Nov 1884 May 1917 30.7 94 N,,,,https://www.bom.gov.au/climate/data/lists_by_element/alphaNSW_139.txt
BOM CDO station list,,139,Rainfall,73033,BETHUNGRA (RETREAT),-34.6437,147.7043,JUNEE,False,False,False,Nov 1896 Nov 2004 107.3 99 N,,,,https://www.bom.gov.au/climate/data/lists_by_element/alphaNSW_139.txt
BOM CDO station list,,139,Rainfall,69006,BETTOWYND (BELLARINGAH),-35.6972,149.7914,QUEANBEYAN-PALERANG REGIONAL,False,False,False,Apr 1896 Mar 2026 126.3 97 N,,,,https://www.bom.gov.au/climate/data/lists_by_element/alphaNSW_139.txt
BOM CDO station list,,139,Rainfall,69035,BETTOWYND (NOBBYS HILL),-35.7564,149.815,EUROBODALLA,False,False,False,Aug 2001 Sep 2025 22.8 94 N,,,,https://www.bom.gov.au/climate/data/lists_by_element/alphaNSW_139.txt
BOM CDO station list,,139,Rainfall,56004,BEULAH,-30.0,151.7,GLEN INNES SEVERN,False,False,False,Aug 1897 Dec 1953 56.4 100 N,,,,https://www.bom.gov.au/climate/data/lists_by_element/alphaNSW_139.txt
BOM CDO station list,,139,Rainfall,70218,BEVANDALE (WYANGALA),-34.5,149.0,HILLTOPS,False,False,False,Jan 1971 Jun 1975 4.1 91 N,,,,https://www.bom.gov.au/climate/data/lists_by_element/alphaNSW_139.txt
BOM CDO station list,,139,Rainfall,70205,BEVENDALE,-34.55,149.0833,UPPER LACHLAN SHIRE,False,False,False,Mar 1893 Dec 1921 26.8 93 N,,,,https://www.bom.gov.au/climate/data/lists_by_element/alphaNSW_139.txt
BOM CDO station list,,139,Rainfall,70114,BEVENDALE (KAFFNA),-34.55,149.0833,UPPER LACHLAN SHIRE,False,False,False,Mar 1961 Jan 1994 7.9 24 N,,,,https://www.bom.gov.au/climate/data/lists_by_element/alphaNSW_139.txt
BOM CDO station list,,139,Rainfall,70295,BEVENDALE (RIVERVIEW),-34.5327,149.1208,UPPER LACHLAN SHIRE,False,False,False,Mar 1978 May 2025 47.3 100 N,,,,https://www.bom.gov.au/climate/data/lists_by_element/alphaNSW_139.txt
BOM CDO station list,,139,Rainfall,66004,BEXLEY BOWLING CLUB,-33.943,151.1098,BAYSIDE,False,False,False,Mar 1931 Jun 2008 73.9 96 N,,,,https://www.bom.gov.au/climate/data/lists_by_element/alphaNSW_139.txt
BOM CDO station list,,139,Rainfall,70111,BIALA (ALVISON),-34.5612,149.2497,UPPER LACHLAN SHIRE,False,False,False,Jan 1938 Feb 2026 88.1 100 N,,,,https://www.bom.gov.au/climate/data/lists_by_element/alphaNSW_139.txt
BOM CDO station list,,139,Rainfall,64001,BIAMBLE,-31.75,149.2,WARRUMBUNGLE,False,False,False,Jan 1885 Dec 1948 62.2 97 N,,,,https://www.bom.gov.au/climate/data/lists_by_element/alphaNSW_139.txt
BOM CDO station list,,139,Rainfall,70291,BIBBENLUKE (BLACK LAKE),-36.85,149.3,SNOWY MONARO REGIONAL,False,False,False,Jun 1963 Nov 1974 11.5 100 N,,,,https://www.bom.gov.au/climate/data/lists_by_element/alphaNSW_139.txt
BOM CDO station list,,139,Rainfall,64003,BIDDEN SCHOOL,-31.6,148.8,GILGANDRA,False,False,False,Aug 1927 Jan 1960 28.4 87 N,,,,https://www.bom.gov.au/climate/data/lists_by_element/alphaNSW_139.txt
BOM CDO station list,,139,Rainfall,64002,BIDDEN STATE FOREST,-31.6,148.8,GILGANDRA,False,False,False,Aug 1936 Apr 1963 25.5 95 N,,,,https://www.bom.gov.au/climate/data/lists_by_element/alphaNSW_139.txt
BOM CDO station list,,139,Rainfall,63201,BIGGA (BIGGA ST),-34.0838,149.1504,UPPER LACHLAN SHIRE,False,False,False,Aug 1897 Feb 2024 31.2 25 N,,,,https://www.bom.gov.au/climate/data/lists_by_element/alphaNSW_139.txt
BOM CDO station list,,139,Rainfall,63211,BIGGA (GREENMANTLE),-33.9301,149.0966,UPPER LACHLAN SHIRE,False,False,False,Feb 1961 Dec 2007 46.4 99 N,,,,https://www.bom.gov.au/climate/data/lists_by_element/alphaNSW_139.txt
BOM CDO station list,,139,Rainfall,63094,BIGGA (WOOLBROOK),-33.9964,149.1235,UPPER LACHLAN SHIRE,False,False,False,Apr 1890 Dec 2018 128.3 100 N,,,,https://www.bom.gov.au/climate/data/lists_by_element/alphaNSW_139.txt
BOM CDO station list,,139,Rainfall,63116,BIGGA (WYOMING),-34.0861,149.1391,UPPER LACHLAN SHIRE,False,False,False,Jan 1938 Jun 2010 72.5 100 N,,,,https://www.bom.gov.au/climate/data/lists_by_element/alphaNSW_139.txt
BOM CDO station list,,139,Rainfall,70119,BIG HILL (GLEN DUSK),-34.5679,149.997,UPPER LACHLAN SHIRE,False,False,False,Feb 1944 Mar 2026 78.5 95 N,,,,https://www.bom.gov.au/climate/data/lists_by_element/alphaNSW_139.txt
BOM CDO station list,,139,Rainfall,72006,BIG SPRINGS,-35.3,147.4,WAGGA WAGGA,False,False,False,Jan 1888 Jan 1953 65.1 100 N,,,,https://www.bom.gov.au/climate/data/lists_by_element/alphaNSW_139.txt
BOM CDO station list,,139,Rainfall,58142,BILAMBIL,-28.2333,153.4667,TWEED,False,False,False,May 1888 Jun 1914 24.8 95 N,,,,https://www.bom.gov.au/climate/data/lists_by_element/alphaNSW_139.txt
BOM CDO station list,,139,Rainfall,74145,BILLAAH,-34.5833,146.8167,NARRANDERA,False,False,False,Sep 1895 Dec 1926 10.1 32 N,,,,https://www.bom.gov.au/climate/data/lists_by_element/alphaNSW_139.txt
BOM CDO station list,,139,Rainfall,57002,BILLABONG,-30.2,151.9,ARMIDALE REGIONAL,False,False,False,Apr 1941 Feb 1991 24.8 50 N,,,,https://www.bom.gov.au/climate/data/lists_by_element/alphaNSW_139.txt
BOM CDO station list,,139,Rainfall,75071,BILLABONG CREEK AT WANGANELLA,-35.2133,144.8244,EDWARD RIVER,False,False,False,Jan 1868 Mar 2026 114.9 73 N,,,,https://www.bom.gov.au/climate/data/lists_by_element/alphaNSW_139.txt
BOM CDO station list,,139,Rainfall,72007,BILLAPALOOLA STATE FOREST,-35.2667,148.3833,SNOWY VALLEYS,False,False,False,May 1938 Oct 1969 31.4 100 N,,,,https://www.bom.gov.au/climate/data/lists_by_element/alphaNSW_139.txt
BOM CDO station list,,139,Rainfall,51106,BILLEROY,-30.6833,148.4333,COONAMBLE,False,False,False,Jun 1907 Sep 1916 9.3 100 N,,,,https://www.bom.gov.au/climate/data/lists_by_element/alphaNSW_139.txt
BOM CDO station list,,139,Rainfall,58083,BILLINUDGEL,-28.5042,153.5267,BYRON,False,False,False,May 1903 Apr 1934 29.1 94 N,,,,https://www.bom.gov.au/climate/data/lists_by_element/alphaNSW_139.txt
BOM CDO station list,,139,Rainfall,63118,BILPIN (FERN GROVE),-33.5157,150.4892,HAWKESBURY,False,False,False,Nov 1892 Mar 2026 133.4 100 N,,,,https://www.bom.gov.au/climate/data/lists_by_element/alphaNSW_139.txt
BOM CDO station list,,139,Rainfall,63182,BILPIN (MOUNTAIN LAGOON),-33.45,150.6333,HAWKESBURY,False,False,False,Nov 1962 Sep 1973 10.9 100 N,,,,https://www.bom.gov.au/climate/data/lists_by_element/alphaNSW_139.txt
BOM CDO station list,,139,Rainfall,63290,BILPIN POST OFFICE,-33.4983,150.5215,HAWKESBURY,False,False,False,May 1988 Mar 2026 37.9 100 N,,,,https://www.bom.gov.au/climate/data/lists_by_element/alphaNSW_139.txt
BOM CDO station list,,139,Rainfall,73061,BIMBI,-34.0667,147.9167,WEDDIN,False,False,False,Apr 1901 Dec 1936 31.5 88 N,,,,https://www.bom.gov.au/climate/data/lists_by_element/alphaNSW_139.txt
BOM CDO station list,,139,Rainfall,73005,BINALONG POST OFFICE,-34.6704,148.6338,YASS VALLEY,False,False,False,Sep 1897 Dec 2015 111.2 94 N,,,,https://www.bom.gov.au/climate/data/lists_by_element/alphaNSW_139.txt
BOM CDO station list,,139,Rainfall,63007,BINDA POST OFFICE,-34.3238,149.3632,UPPER LACHLAN SHIRE,False,False,False,Mar 1905 Oct 2014 82.1 75 N,,,,https://www.bom.gov.au/climate/data/lists_by_element/alphaNSW_139.txt
BOM CDO station list,,139,Rainfall,47006,BINDARA (NETLEY),-32.75,142.3,CENTRAL DARLING,False,False,False,Jan 1877 Mar 1956 78.1 98 N,,,,https://www.bom.gov.au/climate/data/lists_by_element/alphaNSW_139.txt
BOM CDO station list,,139,Rainfall,54106,BINGARA (CROMARTY),-30.0617,150.7589,GWYDIR,False,False,False,Jan 1936 Jun 2009 56.0 76 N,,,,https://www.bom.gov.au/climate/data/lists_by_element/alphaNSW_139.txt
BOM CDO station list,,139,Rainfall,54014,BINGARA (DERRA DERRA),-29.9198,150.3744,GWYDIR,False,False,False,Sep 1899 Dec 2006 103.4 96 N,,,,https://www.bom.gov.au/climate/data/lists_by_element/alphaNSW_139.txt
BOM CDO station list,,139,Rainfall,54123,BINGARA (DERRALEA),-29.82,150.3876,GWYDIR,False,False,False,Jan 1967 Dec 2005 34.9 89 N,,,,https://www.bom.gov.au/climate/data/lists_by_element/alphaNSW_139.txt
BOM CDO station list,,139,Rainfall,54081,BINGARA (GLENROY),-29.7027,150.4096,GWYDIR,False,False,False,Jan 1962 Mar 2025 42.6 67 N,,,,https://www.bom.gov.au/climate/data/lists_by_element/alphaNSW_139.txt
BOM CDO station list,,139,Rainfall,54039,BINGARA (KEERA),-29.9943,150.7812,GWYDIR,False,False,False,Jan 1885 Mar 2026 139.3 99 N,,,,https://www.bom.gov.au/climate/data/lists_by_element/alphaNSW_139.txt
BOM CDO station list,,139,Rainfall,54019,BINGARA (LUCUNDA),-29.9167,150.4167,GWYDIR,False,False,False,Jan 1930 Feb 1974 44.0 100 N,,,,https://www.bom.gov.au/climate/data/lists_by_element/alphaNSW_139.txt
BOM CDO station list,,139,Rainfall,54090,BINGARA (PALLAL),-29.9198,150.3744,GWYDIR,False,False,False,Jan 1900 Mar 2019 118.3 99 N,,,,https://www.bom.gov.au/climate/data/lists_by_element/alphaNSW_139.txt
BOM CDO station list,,139,Rainfall,54004,BINGARA POST OFFICE,-29.8673,150.5715,GWYDIR,False,False,False,Aug 1878 Mar 2026 144.7 98 N,,,,https://www.bom.gov.au/climate/data/lists_by_element/alphaNSW_139.txt
BOM CDO station list,,139,Rainfall,54111,BINGARA (WINSTON),-29.865,150.5767,GWYDIR,False,False,False,Jan 1965 Oct 1972 3.2 40 N,,,,https://www.bom.gov.au/climate/data/lists_by_element/alphaNSW_139.txt
BOM CDO station list,,139,Rainfall,53037,BINIGUY (SPRINGFIELD),-29.6,150.1,MOREE PLAINS,False,False,False,Jan 1914 May 1953 39.4 100 N,,,,https://www.bom.gov.au/climate/data/lists_by_element/alphaNSW_139.txt
BOM CDO station list,,139,Rainfall,64013,BINNAWAY (HAWTHORNE),-31.6417,149.427,WARRUMBUNGLE,False,False,False,Apr 1886 Dec 2020 133.8 99 N,,,,https://www.bom.gov.au/climate/data/lists_by_element/alphaNSW_139.txt
BOM CDO station list,,139,Rainfall,64004,BINNAWAY (WATTLE ST),-31.5553,149.3829,WARRUMBUNGLE,False,False,False,May 1901 Mar 2019 114.7 97 N,,,,https://www.bom.gov.au/climate/data/lists_by_element/alphaNSW_139.txt
BOM CDO station list,,139,Rainfall,64037,BINNIA DOWNS,-31.6667,149.75,WARRUMBUNGLE,False,False,False,Feb 1881 Dec 1915 34.8 99 N,,,,https://www.bom.gov.au/climate/data/lists_by_element/alphaNSW_139.txt
BOM CDO station list,,139,Rainfall,74073,BINYA (MERRIBEE),-34.3,146.35,NARRANDERA,False,False,False,Jan 1881 Apr 1977 96.3 100 N,,,,https://www.bom.gov.au/climate/data/lists_by_element/alphaNSW_139.txt
BOM CDO station list,,139,Rainfall,75006,BINYA POST OFFICE,-34.2289,146.3444,NARRANDERA,False,False,False,Aug 1876 Dec 2025 138.5 93 N,,,,https://www.bom.gov.au/climate/data/lists_by_element/alphaNSW_139.txt
BOM CDO station list,,139,Rainfall,75058,BINYA (ROCKLEIGH),-34.15,146.3,CARRATHOOL,False,False,False,Jan 1915 Oct 1951 36.8 100 N,,,,https://www.bom.gov.au/climate/data/lists_by_element/alphaNSW_139.txt
BOM CDO station list,,139,Rainfall,66178,BIRCHGROVE SCHOOL,-33.85,151.1833,INNER WEST,False,False,False,May 1904 Jun 1910 5.9 96 N,,,,https://www.bom.gov.au/climate/data/lists_by_element/alphaNSW_139.txt
BOM CDO station list,,139,Rainfall,60090,BIRDWOOD,-31.3422,152.341,PORT MACQUARIE-HASTINGS,False,False,False,Jan 1969 Mar 2026 57.1 100 N,,,,https://www.bom.gov.au/climate/data/lists_by_element/alphaNSW_139.txt
BOM CDO station list,,139,Rainfall,60051,BIRDWOOD (ELBEE GLEN),-31.2833,152.3,PORT MACQUARIE-HASTINGS,False,False,False,Aug 1961 Feb 1973 9.9 86 N,,,,https://www.bom.gov.au/climate/data/lists_by_element/alphaNSW_139.txt
BOM CDO station list,,139,Rainfall,55150,BITHRAMERE (FAIRVIEW),-31.1,150.8167,TAMWORTH REGIONAL,False,False,False,Aug 1958 Dec 1969 11.1 97 N,,,,https://www.bom.gov.au/climate/data/lists_by_element/alphaNSW_139.txt
BOM CDO station list,,139,Rainfall,55232,BIWONDAH,-30.8833,150.1167,GUNNEDAH,False,False,False,Sep 1888 Oct 1916 27.3 97 N,,,,https://www.bom.gov.au/climate/data/lists_by_element/alphaNSW_139.txt
BOM CDO station list,,139,Rainfall,68246,BLACKBUTT (TAMMAR PLACE),-34.5707,150.8383,SHELLHARBOUR,False,False,False,Jan 2002 Mar 2026 24.3 100 N,,,,https://www.bom.gov.au/climate/data/lists_by_element/alphaNSW_139.txt
BOM CDO station list,,139,Rainfall,55005,BLACK CREEK,-31.65,150.2,LIVERPOOL PLAINS,False,False,False,Jan 1915 Aug 1956 41.7 100 N,,,,https://www.bom.gov.au/climate/data/lists_by_element/alphaNSW_139.txt
BOM CDO station list,,139,Rainfall,47059,BLACK GATE,-32.1333,142.7167,CENTRAL DARLING,False,False,False,Jan 1898 Jan 1977 32.7 41 N,,,,https://www.bom.gov.au/climate/data/lists_by_element/alphaNSW_139.txt
BOM CDO station list,,139,Rainfall,63202,BLACKHEATH 1,-33.6167,150.3,BLUE MOUNTAINS,False,False,False,Feb 1895 Aug 1906 11.3 98 N,,,,https://www.bom.gov.au/climate/data/lists_by_element/alphaNSW_139.txt
BOM CDO station list,,139,Rainfall,63171,BLACKHEATH (CLIFFVIEW),-33.6667,150.2667,BLUE MOUNTAINS,False,False,False,Mar 1962 May 1967 5.2 98 N,,,,https://www.bom.gov.au/climate/data/lists_by_element/alphaNSW_139.txt
BOM CDO station list,,139,Rainfall,63009,BLACKHEATH (EVANS LOOKOUT RD),-33.6501,150.2931,BLUE MOUNTAINS,False,False,False,Jan 1898 Dec 2017 120.0 100 N,,,,https://www.bom.gov.au/climate/data/lists_by_element/alphaNSW_139.txt
BOM CDO station list,,139,Rainfall,63281,BLACKHEATH M.C.A.,-33.6333,150.2833,BLUE MOUNTAINS,False,False,False,Sep 1981 Oct 1983 2.2 100 N,,,,https://www.bom.gov.au/climate/data/lists_by_element/alphaNSW_139.txt
BOM CDO station list,,139,Rainfall,63295,BLACKHEATH (WOMBAT STREET),-33.6297,150.2803,BLUE MOUNTAINS,False,False,False,Jul 1996 Mar 2026 25.8 87 N,,,,https://www.bom.gov.au/climate/data/lists_by_element/alphaNSW_139.txt
BOM CDO station list,,139,Rainfall,60167,BLACKMANS POINT (THE HATCH),-31.3659,152.837,PORT MACQUARIE-HASTINGS,False,False,False,Apr 2012 Jun 2020 7.3 88 N,,,,https://www.bom.gov.au/climate/data/lists_by_element/alphaNSW_139.txt
BOM CDO station list,,139,Rainfall,56218,BLACK MOUNTAIN (ST.ELMO),-30.35,151.3833,ARMIDALE REGIONAL,False,False,False,May 1973 Aug 1976 3.0 90 N,,,,https://www.bom.gov.au/climate/data/lists_by_element/alphaNSW_139.txt
BOM CDO station list,,139,Rainfall,69144,BLACK RANGE (GRANDVIEW LANE),-36.7263,149.8426,BEGA VALLEY,False,False,False,Dec 2014 Mar 2026 11.3 100 N,,,,https://www.bom.gov.au/climate/data/lists_by_element/alphaNSW_139.txt
BOM CDO station list,,139,Rainfall,63188,BLACK SPRINGS,-33.85,149.75,OBERON,False,False,False,Jul 1889 Dec 1937 48.5 100 N,,,,https://www.bom.gov.au/climate/data/lists_by_element/alphaNSW_139.txt
BOM CDO station list,,139,Rainfall,63087,BLACK SPRINGS FORESTRY,-33.8462,149.7396,OBERON,False,False,False,Dec 1939 Nov 2012 71.1 97 N,,,,https://www.bom.gov.au/climate/data/lists_by_element/alphaNSW_139.txt
BOM CDO station list,,139,Rainfall,63080,BLACK SPRINGS (SWATCHFIELD),-33.8905,149.7103,OBERON,False,False,False,Mar 1937 Jan 2009 71.6 99 N,,,,https://www.bom.gov.au/climate/data/lists_by_element/alphaNSW_139.txt
BOM CDO station list,,139,Rainfall,56203,BLACK SWAMP (ATHLYNE),-29.0455,152.1343,TENTERFIELD,False,False,False,Jan 1968 Dec 2012 41.3 92 N,,,,https://www.bom.gov.au/climate/data/lists_by_element/alphaNSW_139.txt
BOM CDO station list,,139,Rainfall,56202,BLACK SWAMP (MAXWELL),-28.9778,152.1553,TENTERFIELD,False,False,False,Jan 1978 Mar 2026 48.3 100 N,,,,https://www.bom.gov.au/climate/data/lists_by_element/alphaNSW_139.txt
BOM CDO station list,,139,Rainfall,67059,BLACKTOWN,-33.7694,150.8856,BLACKTOWN,False,False,False,Nov 1963 Sep 1993 29.9 100 N,,,,https://www.bom.gov.au/climate/data/lists_by_element/alphaNSW_139.txt
BOM CDO station list,,139,Rainfall,55203,BLACKVILLE 2,-31.6,150.2,LIVERPOOL PLAINS,False,False,False,Apr 1893 Jan 1912 18.8 100 N,,,,https://www.bom.gov.au/climate/data/lists_by_element/alphaNSW_139.txt
BOM CDO station list,,139,Rainfall,55081,BLACKVILLE (GLASSTON),-31.8,150.4167,LIVERPOOL PLAINS,False,False,False,Feb 1904 Feb 1968 30.0 47 N,,,,https://www.bom.gov.au/climate/data/lists_by_element/alphaNSW_139.txt
BOM CDO station list,,139,Rainfall,55297,BLACKVILLE (JUNBARLEE),-31.6982,150.2471,LIVERPOOL PLAINS,False,False,False,Jan 1957 Nov 2014 45.0 78 N,,,,https://www.bom.gov.au/climate/data/lists_by_element/alphaNSW_139.txt
BOM CDO station list,,139,Rainfall,55237,BLACKVILLE (KOUMALA),-31.6683,150.325,LIVERPOOL PLAINS,False,False,False,Mar 1965 Dec 1995 30.8 100 N,,,,https://www.bom.gov.au/climate/data/lists_by_element/alphaNSW_139.txt
BOM CDO station list,,139,Rainfall,61002,BLACKVILLE (KRUI VALE),-31.8469,150.341,UPPER HUNTER,False,False,False,Jan 1885 Nov 2021 136.9 100 N,,,,https://www.bom.gov.au/climate/data/lists_by_element/alphaNSW_139.txt
BOM CDO station list,,139,Rainfall,55006,BLACKVILLE POST OFFICE,-31.6405,150.2356,LIVERPOOL PLAINS,False,False,False,Jan 1879 Mar 2026 138.1 94 N,,,,https://www.bom.gov.au/climate/data/lists_by_element/alphaNSW_139.txt
BOM CDO station list,,139,Rainfall,55061,BLACKVILLE (WELTON DALE),-31.75,150.25,LIVERPOOL PLAINS,False,False,False,Jan 1885 May 1976 84.3 92 N,,,,https://www.bom.gov.au/climate/data/lists_by_element/alphaNSW_139.txt
BOM CDO station list,,139,Rainfall,55300,BLACKVILLE (WIMBOYNE),-31.5833,151.1833,TAMWORTH REGIONAL,False,False,False,Mar 1975 Jan 1978 0.4 14 N,,,,https://www.bom.gov.au/climate/data/lists_by_element/alphaNSW_139.txt
BOM CDO station list,,139,Rainfall,75094,BLAIRGOWRIE,-34.6,146.0,MURRUMBIDGEE,False,False,False,Oct 1892 Sep 1926 29.2 86 N,,,,https://www.bom.gov.au/climate/data/lists_by_element/alphaNSW_139.txt
BOM CDO station list,,139,Rainfall,55226,BLAIRMORE 1,-30.7833,149.8833,GUNNEDAH,False,False,False,Jun 1890 Nov 1914 21.7 88 N,,,,https://www.bom.gov.au/climate/data/lists_by_element/alphaNSW_139.txt
BOM CDO station list,,139,Rainfall,61099,BLAIR MORE 2,-32.2,150.8667,MUSWELLBROOK,False,False,False,Jan 1900 Nov 1924 24.9 100 N,,,,https://www.bom.gov.au/climate/data/lists_by_element/alphaNSW_139.txt
BOM CDO station list,,139,Rainfall,73062,BLAND,-33.9667,147.8,WEDDIN,False,False,False,Aug 1901 Jul 1918 16.7 98 N,,,,https://www.bom.gov.au/climate/data/lists_by_element/alphaNSW_139.txt
BOM CDO station list,,139,Rainfall,61372,BLANDFORD (PAGES RIVER),-31.8017,150.925,UPPER HUNTER,False,False,False,Jun 2001 Mar 2026 24.6 99 N,,,,https://www.bom.gov.au/climate/data/lists_by_element/alphaNSW_139.txt
BOM CDO station list,,139,Rainfall,63184,BLAXLAND RIDGE,-33.5,150.75,HAWKESBURY,False,False,False,Nov 1962 Sep 1979 16.9 100 N,,,,https://www.bom.gov.au/climate/data/lists_by_element/alphaNSW_139.txt
BOM CDO station list,,139,Rainfall,63230,BLAXLAND WESTERN HIGHWAY,-33.75,150.6,BLUE MOUNTAINS,False,False,False,May 1968 Sep 1980 12.4 100 N,,,,https://www.bom.gov.au/climate/data/lists_by_element/alphaNSW_139.txt
BOM CDO station list,,139,Rainfall,63279,BLAYNEY (ATHOL),-33.5333,149.2667,BLAYNEY,False,False,False,Jan 1885 Mar 1901 14.3 88 N,,,,https://www.bom.gov.au/climate/data/lists_by_element/alphaNSW_139.txt
BOM CDO station list,,139,Rainfall,63294,BLAYNEY (ORANGE ROAD),-33.5284,149.2454,BLAYNEY,False,False,False,Apr 1990 Sep 2020 28.8 94 N,,,,https://www.bom.gov.au/climate/data/lists_by_element/alphaNSW_139.txt
BOM CDO station list,,139,Rainfall,63010,BLAYNEY POST OFFICE,-33.535,149.26,BLAYNEY,False,False,False,Jun 1885 Jul 1992 107.2 100 N,,,,https://www.bom.gov.au/climate/data/lists_by_element/alphaNSW_139.txt
BOM CDO station list,,139,Rainfall,63086,BLAYNEY (VITTORIA),-33.45,149.3333,CABONNE,False,False,False,Jan 1902 Jun 1977 70.5 93 N,,,,https://www.bom.gov.au/climate/data/lists_by_element/alphaNSW_139.txt
BOM CDO station list,,139,Rainfall,50097,BLOW CLEAR,-33.7167,147.1667,BLAND,False,False,False,Jan 1890 Dec 1920 30.3 98 N,,,,https://www.bom.gov.au/climate/data/lists_by_element/alphaNSW_139.txt
BOM CDO station list,,139,Rainfall,72056,BLOWERING DAM,-35.3946,148.2469,SNOWY VALLEYS,False,False,False,Mar 1955 Mar 2026 70.0 98 N,,,,https://www.bom.gov.au/climate/data/lists_by_element/alphaNSW_139.txt
BOM CDO station list,,139,Rainfall,49100,BLUE HILL,-33.6833,144.0667,BALRANALD,False,False,False,Jul 1911 Jun 1922 10.7 97 N,,,,https://www.bom.gov.au/climate/data/lists_by_element/alphaNSW_139.txt
BOM CDO station list,,139,Rainfall,58204,BOAT HARBOUR (ROUS RIVER),-28.3217,153.3467,TWEED,False,False,False,Dec 2000 Feb 2026 25.3 100 N,,,,https://www.bom.gov.au/climate/data/lists_by_element/alphaNSW_139.txt
BOM CDO station list,,139,Rainfall,50053,BOBADAH (AVOCA),-32.2833,146.7,BOGAN,False,False,False,Aug 1898 Jul 1948 47.7 95 N,,,,https://www.bom.gov.au/climate/data/lists_by_element/alphaNSW_139.txt
BOM CDO station list,,139,Rainfall,50111,BOBADAH (KALABRA),-32.4333,146.6,LACHLAN,False,False,False,Sep 1968 Jun 1977 8.8 100 N,,,,https://www.bom.gov.au/climate/data/lists_by_element/alphaNSW_139.txt
BOM CDO station list,,139,Rainfall,50128,BOBADAH (MELROSE),-32.65,146.9333,LACHLAN,False,False,False,Jan 1872 Dec 1908 37.0 100 N,,,,https://www.bom.gov.au/climate/data/lists_by_element/alphaNSW_139.txt
BOM CDO station list,,139,Rainfall,50029,BOBADAH (MURRUMBONG),-32.3,146.5833,BOGAN,False,False,False,Oct 1936 Nov 1949 13.2 100 N,,,,https://www.bom.gov.au/climate/data/lists_by_element/alphaNSW_139.txt
BOM CDO station list,,139,Rainfall,50132,BOBADAH (PANJIE PARK),-32.0333,146.85,BOGAN,False,False,False,Jul 1877 Jun 1895 18.0 100 N,,,,https://www.bom.gov.au/climate/data/lists_by_element/alphaNSW_139.txt
BOM CDO station list,,139,Rainfall,50125,BOBADAH (PRETTY VIEW),-32.3108,146.6723,BOGAN,False,False,False,Jan 1956 Dec 2025 49.6 71 N,,,,https://www.bom.gov.au/climate/data/lists_by_element/alphaNSW_139.txt
BOM CDO station list,,139,Rainfall,50072,BOBADAH (THE GLEN),-32.3667,146.7833,BOGAN,False,False,False,Feb 1890 Oct 1936 45.2 97 N,,,,https://www.bom.gov.au/climate/data/lists_by_element/alphaNSW_139.txt
BOM CDO station list,,139,Rainfall,60046,BOBIN (BOBIN CREEK),-31.6877,152.2688,MID-COAST,False,False,False,Aug 1961 Mar 2026 59.0 91 N,,,,https://www.bom.gov.au/climate/data/lists_by_element/alphaNSW_139.txt
BOM CDO station list,,139,Rainfall,70004,BOBUNDARA,-36.5,148.9,SNOWY MONARO REGIONAL,False,False,False,Jan 1883 Jan 1953 66.9 95 N,,,,https://www.bom.gov.au/climate/data/lists_by_element/alphaNSW_139.txt
BOM CDO station list,,139,Rainfall,69036,BODALLA POST OFFICE,-36.0876,150.051,EUROBODALLA,False,False,False,Jan 1876 Mar 2026 144.0 96 N,,,,https://www.bom.gov.au/climate/data/lists_by_element/alphaNSW_139.txt
BOM CDO station list,,139,Rainfall,69007,BODALLA STATE FOREST,-36.15,150.1,EUROBODALLA,False,False,False,Jul 1936 Oct 1961 25.3 100 N,,,,https://www.bom.gov.au/climate/data/lists_by_element/alphaNSW_139.txt
BOM CDO station list,,139,Rainfall,69103,BODALLA (TYRONE),-36.1333,149.9833,EUROBODALLA,False,False,False,May 1970 May 1974 2.6 63 N,,,,https://www.bom.gov.au/climate/data/lists_by_element/alphaNSW_139.txt
BOM CDO station list,,139,Rainfall,65003,BODANGORA POST OFFICE,-32.45,149.0,DUBBO REGIONAL,False,False,False,Nov 1899 Sep 1968 66.1 96 N,,,,https://www.bom.gov.au/climate/data/lists_by_element/alphaNSW_139.txt
BOM CDO station list,,139,Rainfall,50004,BOGAN GATE POST OFFICE,-33.1074,147.8008,PARKES,False,False,False,Jan 1894 Jul 2017 111.6 90 N,,,,https://www.bom.gov.au/climate/data/lists_by_element/alphaNSW_139.txt
BOM CDO station list,,139,Rainfall,53078,BOGGABILLA (BOONAL),-28.7167,150.5667,GWYDIR,False,False,False,Jan 1899 Sep 1972 53.5 72 N,,,,https://www.bom.gov.au/climate/data/lists_by_element/alphaNSW_139.txt
BOM CDO station list,,139,Rainfall,53004,BOGGABILLA POST OFFICE,-28.6024,150.3604,MOREE PLAINS,False,False,False,Jan 1893 May 2010 117.2 100 N,,,,https://www.bom.gov.au/climate/data/lists_by_element/alphaNSW_139.txt
BOM CDO station list,,139,Rainfall,53084,BOGGABILLA (SABER DOWNS),-28.8167,150.2667,MOREE PLAINS,False,False,False,Dec 1966 Mar 1974 7.3 100 N,,,,https://www.bom.gov.au/climate/data/lists_by_element/alphaNSW_139.txt
BOM CDO station list,,139,Rainfall,53079,BOGGABILLA (TRINKEY),-28.6167,150.05,MOREE PLAINS,False,False,False,Jan 1966 Apr 1973 7.3 100 N,,,,https://www.bom.gov.au/climate/data/lists_by_element/alphaNSW_139.txt
BOM CDO station list,,139,Rainfall,55204,BOGGABRI 2,-30.7,150.0,NARRABRI,False,False,False,Jul 1912 Dec 1936 21.8 89 N,,,,https://www.bom.gov.au/climate/data/lists_by_element/alphaNSW_139.txt
BOM CDO station list,,139,Rainfall,55268,BOGGABRI (BE-BARA),-30.8325,149.7745,NARRABRI,False,False,False,Sep 1966 Apr 2025 56.8 97 N,,,,https://www.bom.gov.au/climate/data/lists_by_element/alphaNSW_139.txt
BOM CDO station list,,139,Rainfall,55269,BOGGABRI (CALOOLA),-30.6667,149.8833,NARRABRI,False,False,False,Sep 1966 Jan 1979 12.4 100 N,,,,https://www.bom.gov.au/climate/data/lists_by_element/alphaNSW_139.txt
BOM CDO station list,,139,Rainfall,55020,BOGGABRI (GHOOLENDAADI),-30.8333,149.9167,GUNNEDAH,False,False,False,Mar 1869 Apr 1975 103.5 97 N,,,,https://www.bom.gov.au/climate/data/lists_by_element/alphaNSW_139.txt
BOM CDO station list,,139,Rainfall,55076,BOGGABRI (KANOWNDA),-30.5121,150.2119,NARRABRI,False,False,False,Jan 1899 Dec 2021 121.3 99 N,,,,https://www.bom.gov.au/climate/data/lists_by_element/alphaNSW_139.txt
BOM CDO station list,,139,Rainfall,55033,BOGGABRI (MAYFIELD),-30.6167,150.25,NARRABRI,False,False,False,Oct 1934 Feb 1986 49.3 96 N,,,,https://www.bom.gov.au/climate/data/lists_by_element/alphaNSW_139.txt
BOM CDO station list,,139,Rainfall,55265,BOGGABRI (MERRIENDI),-30.54,150.0233,NARRABRI,False,False,False,Dec 1966 Jul 1997 27.8 90 N,,,,https://www.bom.gov.au/climate/data/lists_by_element/alphaNSW_139.txt
BOM CDO station list,,139,Rainfall,55034,BOGGABRI (MILCHENGOWRIE),-30.7451,150.0548,NARRABRI,False,False,False,Jul 1887 Dec 2012 117.7 94 N,,,,https://www.bom.gov.au/climate/data/lists_by_element/alphaNSW_139.txt
BOM CDO station list,,139,Rainfall,55273,BOGGABRI (NEOTSFIELD),-30.8202,149.8366,GUNNEDAH,False,False,False,May 1968 Dec 2019 50.7 98 N,,,,https://www.bom.gov.au/climate/data/lists_by_element/alphaNSW_139.txt
BOM CDO station list,,139,Rainfall,55007,BOGGABRI POST OFFICE,-30.7056,150.0458,NARRABRI,False,False,False,Oct 1884 Mar 2023 138.4 100 N,,,,https://www.bom.gov.au/climate/data/lists_by_element/alphaNSW_139.txt
BOM CDO station list,,139,Rainfall,55044,BOGGABRI (RETREAT),-30.7044,150.2767,NARRABRI,False,False,False,Mar 1899 Mar 2026 127.1 100 N,,,,https://www.bom.gov.au/climate/data/lists_by_element/alphaNSW_139.txt
BOM CDO station list,,139,Rainfall,54030,BOGGABRI (WILLEROI),-30.4333,150.3167,NARRABRI,False,False,False,Feb 1942 Jun 1966 17.8 73 N,,,,https://www.bom.gov.au/climate/data/lists_by_element/alphaNSW_139.txt
BOM CDO station list,,139,Rainfall,55264,BOGGABRI (WILLOWDALE),-31.5103,150.19,LIVERPOOL PLAINS,False,False,False,Dec 1966 Dec 1984 18.0 99 N,,,,https://www.bom.gov.au/climate/data/lists_by_element/alphaNSW_139.txt
BOM CDO station list,,139,Rainfall,65044,BOGO BOGOLOG,-33.9,148.3,WEDDIN,False,False,False,Feb 1886 Nov 1920 34.8 100 N,,,,https://www.bom.gov.au/climate/data/lists_by_element/alphaNSW_139.txt
BOM CDO station list,,139,Rainfall,50005,BOLAGAMY,-33.8,146.9667,BLAND,False,False,False,Jan 1885 Dec 1971 86.2 99 N,,,,https://www.bom.gov.au/climate/data/lists_by_element/alphaNSW_139.txt
BOM CDO station list,,139,Rainfall,56049,BOLIVIA (ESPERANZA STATION),-29.25,151.8333,TENTERFIELD,False,False,False,Jan 1953 Aug 1974 21.7 100 N,,,,https://www.bom.gov.au/climate/data/lists_by_element/alphaNSW_139.txt
BOM CDO station list,,139,Rainfall,56048,BOLIVIA POST OFFICE,-29.3,151.95,TENTERFIELD,False,False,False,Jul 1954 Mar 1973 16.8 90 N,,,,https://www.bom.gov.au/climate/data/lists_by_element/alphaNSW_139.txt
BOM CDO station list,,139,Rainfall,61133,BOLTON POINT (THE RIDGE WAY),-32.9906,151.6099,LAKE MACQUARIE,False,False,False,Apr 1962 Jun 2025 47.3 75 N,,,,https://www.bom.gov.au/climate/data/lists_by_element/alphaNSW_139.txt
BOM CDO station list,,139,Rainfall,68136,BOMADERRY,-34.85,150.6167,SHOALHAVEN,False,False,False,Mar 1903 Jun 1938 35.3 100 N,,,,https://www.bom.gov.au/climate/data/lists_by_element/alphaNSW_139.txt
BOM CDO station list,,139,Rainfall,48008,BOMALLI,-29.4333,147.55,BREWARRINA,False,False,False,Jul 1913 Jun 1969 54.1 97 N,,,,https://www.bom.gov.au/climate/data/lists_by_element/alphaNSW_139.txt
BOM CDO station list,,139,Rainfall,70328,BOMBALA AWS,-37.0015,149.2336,SNOWY MONARO REGIONAL,False,False,False,Jun 1994 Mar 2026 31.8 100 Y,,,,https://www.bom.gov.au/climate/data/lists_by_element/alphaNSW_139.txt
BOM CDO station list,,139,Rainfall,70154,BOMBALA (BANOOL),-36.7333,149.1167,SNOWY MONARO REGIONAL,False,False,False,May 1962 Feb 1976 13.8 99 N,,,,https://www.bom.gov.au/climate/data/lists_by_element/alphaNSW_139.txt
BOM CDO station list,,139,Rainfall,70013,BOMBALA (CAMBALONG),-36.8878,149.1107,SNOWY MONARO REGIONAL,False,False,False,Jan 1920 May 2017 92.2 95 N,,,,https://www.bom.gov.au/climate/data/lists_by_element/alphaNSW_139.txt
BOM CDO station list,,139,Rainfall,69108,BOMBALA (MOUNTAIN TOP),-37.0688,149.2957,SNOWY MONARO REGIONAL,False,False,False,Jan 2002 Dec 2014 12.9 99 N,,,,https://www.bom.gov.au/climate/data/lists_by_element/alphaNSW_139.txt
