[
  {
    "status": "candidate_recent",
    "station_no": "568171",
    "station_name": "ALBION PARK BOWLING CLUB",
    "lat": -34.5703,
    "lon": 150.7684,
    "days_since_last_data": 279.2,
    "last_data_at": "2025-07-01T06:05:20.000+10:00",
    "first_data_at": "1990-10-31T08:56:00.000+10:00",
    "data_owner": "NSW - Sydney Water Corporation (Sydney Water)"
  },
  {
    "status": "candidate_recent",
    "station_no": "568162",
    "station_name": "BALGOWNIE RESERVOIR",
    "lat": -34.3928,
    "lon": 150.8703,
    "days_since_last_data": 279.2,
    "last_data_at": "2025-07-01T05:54:52.000+10:00",
    "first_data_at": "1990-01-03T12:30:00.000+10:00",
    "data_owner": "NSW - Sydney Water Corporation (Sydney Water)"
  },
  {
    "status": "candidate_recent",
    "station_no": "5CPS02",
    "station_name": "BELMORE BOWLING CLUB",
    "lat": -33.9182,
    "lon": 151.0922,
    "days_since_last_data": 279.2,
    "last_data_at": "2025-07-01T06:25:35.000+10:00",
    "first_data_at": "2014-08-28T09:00:08.000+10:00",
    "data_owner": ""
  },
  {
    "status": "candidate_recent",
    "station_no": "568170",
    "station_name": "BOMBO STP",
    "lat": -34.652,
    "lon": 150.86,
    "days_since_last_data": 279.2,
    "last_data_at": "2025-07-01T05:59:04.000+10:00",
    "first_data_at": "1990-10-02T15:26:00.000+10:00",
    "data_owner": "NSW - Sydney Water Corporation (Sydney Water)"
  },
  {
    "status": "candidate_recent",
    "station_no": "568172",
    "station_name": "BULLI BOWLING CLUB (FORMERLY THIRROUL BC)",
    "lat": -34.3319,
    "lon": 150.9134,
    "days_since_last_data": 279.2,
    "last_data_at": "2025-07-01T06:02:01.000+10:00",
    "first_data_at": "1990-10-31T13:12:00.000+10:00",
    "data_owner": "NSW - Sydney Water Corporation (Sydney Water)"
  },
  {
    "status": "candidate_recent",
    "station_no": "568149",
    "station_name": "CAMDEN (BROWNLOW HILL)",
    "lat": -34.0292,
    "lon": 150.6575,
    "days_since_last_data": 279.2,
    "last_data_at": "2025-07-01T06:07:41.000+10:00",
    "first_data_at": "1985-08-01T10:45:00.000+10:00",
    "data_owner": "NSW - Sydney Water Corporation (Sydney Water)"
  },
  {
    "status": "candidate_recent",
    "station_no": "568147",
    "station_name": "CAMDEN (CAMDEN PARK RESERVOIR)",
    "lat": -34.0996,
    "lon": 150.6981,
    "days_since_last_data": 279.2,
    "last_data_at": "2025-07-01T05:57:38.000+10:00",
    "first_data_at": "1985-08-01T12:30:00.000+10:00",
    "data_owner": "NSW - Sydney Water Corporation (Sydney Water)"
  },
  {
    "status": "candidate_recent",
    "station_no": "568156",
    "station_name": "CAMDEN GOLF COURSE",
    "lat": -34.04823588,
    "lon": 150.73002589,
    "days_since_last_data": 279.2,
    "last_data_at": "2025-07-01T06:03:08.000+10:00",
    "first_data_at": "1987-03-23T15:48:00.000+10:00",
    "data_owner": "NSW - Sydney Water Corporation (Sydney Water)"
  },
  {
    "status": "candidate_recent",
    "station_no": "568179",
    "station_name": "CAMPBELLTOWN BOWLING CLUB",
    "lat": -34.0658,
    "lon": 150.8166,
    "days_since_last_data": 279.2,
    "last_data_at": "2025-07-01T06:01:56.000+10:00",
    "first_data_at": "1991-10-23T16:52:00.000+10:00",
    "data_owner": ""
  },
  {
    "status": "candidate_recent",
    "station_no": "568181",
    "station_name": "FIGTREE BOWLING CLUB",
    "lat": -34.4363,
    "lon": 150.8646,
    "days_since_last_data": 279.2,
    "last_data_at": "2025-07-01T06:09:38.000+10:00",
    "first_data_at": "2000-06-04T23:59:00.000+10:00",
    "data_owner": "NSW - Sydney Water Corporation (Sydney Water)"
  },
  {
    "status": "candidate_recent",
    "station_no": "568187",
    "station_name": "JAMBEROO (WOODSTOCK)",
    "lat": -34.6407,
    "lon": 150.7662,
    "days_since_last_data": 279.2,
    "last_data_at": "2025-07-01T06:16:45.000+10:00",
    "first_data_at": "1992-09-15T15:47:00.000+10:00",
    "data_owner": "NSW - Sydney Water Corporation (Sydney Water)"
  },
  {
    "status": "candidate_recent",
    "station_no": "568159",
    "station_name": "KANAHOOKA SPS1113 FORMERLY KANAHOOKA SPS308",
    "lat": -34.50046667,
    "lon": 150.82678333,
    "days_since_last_data": 279.2,
    "last_data_at": "2025-07-01T05:56:21.000+10:00",
    "first_data_at": "1989-04-04T14:02:00.000+10:00",
    "data_owner": "NSW - Sydney Water Corporation (Sydney Water)"
  },
  {
    "status": "candidate_recent",
    "station_no": "568188",
    "station_name": "KIAMA [WATER TANK]",
    "lat": -34.6735,
    "lon": 150.8434,
    "days_since_last_data": 279.2,
    "last_data_at": "2025-07-01T05:51:28.000+10:00",
    "first_data_at": "1992-10-29T14:22:00.000+10:00",
    "data_owner": "NSW - Sydney Water Corporation (Sydney Water)"
  },
  {
    "status": "candidate_recent",
    "station_no": "568168",
    "station_name": "MENANGLE METEOROLOGICAL STATION.",
    "lat": -34.1235,
    "lon": 150.7384,
    "days_since_last_data": 279.2,
    "last_data_at": "2025-07-01T05:45:26.000+10:00",
    "first_data_at": "1990-07-17T13:30:00.000+10:00",
    "data_owner": "NSW - Sydney Water Corporation (Sydney Water)"
  },
  {
    "status": "candidate_recent",
    "station_no": "568350",
    "station_name": "PICTON BOWLING CLUB",
    "lat": -34.166391,
    "lon": 150.610981,
    "days_since_last_data": 279.2,
    "last_data_at": "2025-07-01T06:16:51.000+10:00",
    "first_data_at": "2003-11-07T11:28:04.000+10:00",
    "data_owner": "NSW - Sydney Water Corporation (Sydney Water)"
  },
  {
    "status": "candidate_recent",
    "station_no": "568186",
    "station_name": "TONGARRA [GLENHAVEN]",
    "lat": -34.581,
    "lon": 150.718,
    "days_since_last_data": 279.2,
    "last_data_at": "2025-07-01T06:02:26.000+10:00",
    "first_data_at": "1992-09-07T14:56:00.000+10:00",
    "data_owner": "NSW - Sydney Water Corporation (Sydney Water)"
  },
  {
    "status": "candidate_recent",
    "station_no": "568044",
    "station_name": "WARRAGAMBA WATER FILTRATION PLANT",
    "lat": -33.8915,
    "lon": 150.5983,
    "days_since_last_data": 279.2,
    "last_data_at": "2025-07-01T05:44:01.000+10:00",
    "first_data_at": "2003-02-19T12:00:00.000+10:00",
    "data_owner": "NSW - Sydney Water Corporation (Sydney Water)"
  },
  {
    "status": "candidate_recent",
    "station_no": "567174",
    "station_name": "WORKERS HUBERTUS CLUB LUDDENHAM",
    "lat": -33.8753,
    "lon": 150.71366,
    "days_since_last_data": 279.2,
    "last_data_at": "2025-07-01T05:43:46.000+10:00",
    "first_data_at": "2024-02-04T03:00:00.000+10:00",
    "data_owner": ""
  },
  {
    "status": "candidate_recent",
    "station_no": "5GYM02",
    "station_name": "YOWIE PUBLIC SCHOOL",
    "lat": -34.048652,
    "lon": 151.10311,
    "days_since_last_data": 279.2,
    "last_data_at": "2025-07-01T06:21:02.000+10:00",
    "first_data_at": "2022-11-30T12:00:00.000+10:00",
    "data_owner": ""
  },
  {
    "status": "candidate_recent",
    "station_no": "568153",
    "station_name": "BELLAMBI BOWLING CLUB (FORMERLY CORRIMAL)",
    "lat": -34.3674,
    "lon": 150.9098,
    "days_since_last_data": 279.3,
    "last_data_at": "2025-07-01T05:39:03.000+10:00",
    "first_data_at": "1987-10-13T15:08:00.000+10:00",
    "data_owner": "NSW - Sydney Water Corporation (Sydney Water)"
  },
  {
    "status": "candidate_recent",
    "station_no": "568173",
    "station_name": "BERKELEY (BERKELEY SPORTS AND SOCIAL CLUB)",
    "lat": -34.483,
    "lon": 150.8473,
    "days_since_last_data": 279.3,
    "last_data_at": "2025-07-01T05:29:36.000+10:00",
    "first_data_at": "1990-10-31T11:02:00.000+10:00",
    "data_owner": "NSW - Sydney Water Corporation (Sydney Water)"
  },
  {
    "status": "candidate_recent",
    "station_no": "568180",
    "station_name": "DAPTO CITIZENS BOWLING CLUB",
    "lat": -34.4998,
    "lon": 150.801,
    "days_since_last_data": 279.3,
    "last_data_at": "2025-07-01T05:40:28.000+10:00",
    "first_data_at": "1991-09-21T09:10:00.000+10:00",
    "data_owner": "NSW - Sydney Water Corporation (Sydney Water)"
  },
  {
    "status": "candidate_recent",
    "station_no": "568053",
    "station_name": "PICTON STP",
    "lat": -34.2029,
    "lon": 150.6148,
    "days_since_last_data": 279.3,
    "last_data_at": "2025-07-01T05:02:25.000+10:00",
    "first_data_at": "1998-04-09T14:00:00.000+10:00",
    "data_owner": "NSW - Sydney Water Corporation (Sydney Water)"
  },
  {
    "status": "candidate_recent",
    "station_no": "567175",
    "station_name": "SP1160 MARSDEN PARK",
    "lat": -33.69112,
    "lon": 150.80575,
    "days_since_last_data": 279.3,
    "last_data_at": "2025-07-01T04:09:36.000+10:00",
    "first_data_at": "2023-12-12T07:07:25.000+10:00",
    "data_owner": ""
  },
  {
    "status": "candidate_recent",
    "station_no": "568351",
    "station_name": "TAHMOOR (INGHAMS PROCESSING PLANT)",
    "lat": -34.2292,
    "lon": 150.5921,
    "days_since_last_data": 279.3,
    "last_data_at": "2025-07-01T05:33:48.000+10:00",
    "first_data_at": "2000-02-29T23:59:00.000+10:00",
    "data_owner": "NSW - Sydney Water Corporation (Sydney Water)"
  },
  {
    "status": "candidate_recent",
    "station_no": "568352",
    "station_name": "THIRLMERE (RAIL MUSEUM)",
    "lat": -34.2052,
    "lon": 150.5707,
    "days_since_last_data": 279.3,
    "last_data_at": "2025-07-01T05:39:51.000+10:00",
    "first_data_at": "2000-08-14T23:59:00.000+10:00",
    "data_owner": "NSW - Sydney Water Corporation (Sydney Water)"
  },
  {
    "status": "candidate_recent",
    "station_no": "568136",
    "station_name": "WOLLONGONG STP",
    "lat": -34.4409,
    "lon": 150.8974,
    "days_since_last_data": 279.3,
    "last_data_at": "2025-07-01T05:02:38.000+10:00",
    "first_data_at": "1998-10-08T13:08:00.000+10:00",
    "data_owner": "NSW - Sydney Water Corporation (Sydney Water)"
  },
  {
    "status": "candidate_recent",
    "station_no": "5CHL02",
    "station_name": "Rogan Hill Res Glen Rd Castle Hill (WS0263)",
    "lat": -33.73405863,
    "lon": 151.0197542,
    "days_since_last_data": 279.4,
    "last_data_at": "2025-07-01T03:00:01.000+10:00",
    "first_data_at": "2002-07-10T00:00:00.000+10:00",
    "data_owner": ""
  },
  {
    "status": "candidate_recent",
    "station_no": "421201",
    "station_name": "OBERON CENTROID WEATHER STATION (SHOOTERS HILL)",
    "lat": -33.835273449,
    "lon": 149.855910032,
    "days_since_last_data": 279.6,
    "last_data_at": "2025-06-30T21:45:01.000+10:00",
    "first_data_at": "2022-05-18T23:45:00.000+10:00",
    "data_owner": "NSW - Water NSW"
  },
  {
    "status": "candidate_recent",
    "station_no": "568078",
    "station_name": "BUDDEROO",
    "lat": -34.70852032,
    "lon": 150.62297459,
    "days_since_last_data": 279.8,
    "last_data_at": "2025-06-30T17:13:01.000+10:00",
    "first_data_at": "1981-06-27T05:40:00.000+10:00",
    "data_owner": ""
  },
  {
    "status": "candidate_recent",
    "station_no": "568135",
    "station_name": "BENDEELA PUMPING STATION",
    "lat": -34.72445664,
    "lon": 150.47942888,
    "days_since_last_data": 280.1,
    "last_data_at": "2025-06-30T09:00:01.000+10:00",
    "first_data_at": "2009-05-09T00:00:00.000+10:00",
    "data_owner": ""
  },
  {
    "status": "candidate_recent",
    "station_no": "570335",
    "station_name": "BIG HILL (GLEN DUSK)",
    "lat": -34.56611148,
    "lon": 149.99805511,
    "days_since_last_data": 280.1,
    "last_data_at": "2025-06-30T09:00:01.000+10:00",
    "first_data_at": "2021-02-18T09:00:00.000+10:00",
    "data_owner": ""
  },
  {
    "status": "candidate_recent",
    "station_no": "568225",
    "station_name": "CANYONLEIGH - TUGALONG RD",
    "lat": -34.56083333,
    "lon": 150.1625,
    "days_since_last_data": 280.1,
    "last_data_at": "2025-06-30T09:00:01.000+10:00",
    "first_data_at": "2019-05-01T09:00:00.000+10:00",
    "data_owner": ""
  },
  {
    "status": "candidate_recent",
    "station_no": "568164",
    "station_name": "HILLTOP (NATTAI TABLELAND) TBRG",
    "lat": -34.21527802,
    "lon": 150.41222291,
    "days_since_last_data": 280.1,
    "last_data_at": "2025-06-30T09:00:01.000+10:00",
    "first_data_at": "2024-06-20T09:00:00.000+10:00",
    "data_owner": ""
  },
  {
    "status": "candidate_recent",
    "station_no": "568163",
    "station_name": "JOADJA (GREENSTEAD)",
    "lat": -34.42472218,
    "lon": 150.19111096,
    "days_since_last_data": 280.1,
    "last_data_at": "2025-06-30T09:00:01.000+10:00",
    "first_data_at": "2019-06-30T09:00:00.000+10:00",
    "data_owner": ""
  },
  {
    "status": "candidate_recent",
    "station_no": "563070",
    "station_name": "LINDEN (WOODFORD CK DAM)",
    "lat": -33.69959743,
    "lon": 150.48967245,
    "days_since_last_data": 280.1,
    "last_data_at": "2025-06-30T09:00:01.000+10:00",
    "first_data_at": "2020-03-01T09:00:00.000+10:00",
    "data_owner": ""
  },
  {
    "status": "candidate_recent",
    "station_no": "563073",
    "station_name": "LOWTHER(DUDDAWARRA)",
    "lat": -33.61372,
    "lon": 150.15795,
    "days_since_last_data": 280.1,
    "last_data_at": "2025-06-30T09:00:01.000+10:00",
    "first_data_at": "1987-12-11T09:20:00.000+10:00",
    "data_owner": ""
  },
  {
    "status": "candidate_recent",
    "station_no": "563071",
    "station_name": "MEDLOW BATH (LAKE MEDLOW DAM)",
    "lat": -33.6619443,
    "lon": 150.29750004,
    "days_since_last_data": 280.1,
    "last_data_at": "2025-06-30T09:00:01.000+10:00",
    "first_data_at": "1983-12-12T10:15:00.000+10:00",
    "data_owner": ""
  },
  {
    "status": "candidate_recent",
    "station_no": "409216A",
    "station_name": "MURRAY RAT UPSTREAM YARRAWONGA WEIR - STORAGE GAUGE",
    "lat": -36.0089,
    "lon": 145.9994,
    "days_since_last_data": 280.1,
    "last_data_at": "2025-06-30T09:00:01.000+10:00",
    "first_data_at": "2012-11-08T09:00:00.000+10:00",
    "data_owner": "NSW - Water NSW"
  },
  {
    "status": "candidate_recent",
    "station_no": "568133",
    "station_name": "NERRIGA (TALLOWAL CK)",
    "lat": -34.89599283,
    "lon": 150.15673103,
    "days_since_last_data": 280.1,
    "last_data_at": "2025-06-30T09:00:01.000+10:00",
    "first_data_at": "2014-07-09T10:43:00.000+10:00",
    "data_owner": ""
  },
  {
    "status": "candidate_recent",
    "station_no": "568057",
    "station_name": "TBRG AVON TOWER",
    "lat": -34.372372,
    "lon": 150.611749,
    "days_since_last_data": 280.1,
    "last_data_at": "2025-06-30T09:00:01.000+10:00",
    "first_data_at": "2015-02-18T09:17:01.000+10:00",
    "data_owner": ""
  },
  {
    "status": "candidate_recent",
    "station_no": "568061",
    "station_name": "TBRG BROWNS ROAD",
    "lat": -34.401525,
    "lon": 150.712017,
    "days_since_last_data": 280.1,
    "last_data_at": "2025-06-30T09:00:01.000+10:00",
    "first_data_at": "2014-05-14T13:24:00.000+10:00",
    "data_owner": ""
  },
  {
    "status": "candidate_recent",
    "station_no": "568004",
    "station_name": "TBRG CORDEAUX AIR STRIP",
    "lat": -34.28570026,
    "lon": 150.72657079,
    "days_since_last_data": 280.1,
    "last_data_at": "2025-06-30T09:00:01.000+10:00",
    "first_data_at": "2018-09-12T13:37:40.000+10:00",
    "data_owner": ""
  },
  {
    "status": "candidate_recent",
    "station_no": "568058",
    "station_name": "TBRG HAMBRIDGE",
    "lat": -34.452178,
    "lon": 150.647381,
    "days_since_last_data": 280.1,
    "last_data_at": "2025-06-30T09:00:01.000+10:00",
    "first_data_at": "2014-05-14T14:08:05.000+10:00",
    "data_owner": ""
  },
  {
    "status": "candidate_recent",
    "station_no": "568065",
    "station_name": "TBRG LETTERBOX TOWER",
    "lat": -34.265039,
    "lon": 150.879325,
    "days_since_last_data": 280.1,
    "last_data_at": "2025-06-30T09:00:01.000+10:00",
    "first_data_at": "2018-09-12T09:47:20.000+10:00",
    "data_owner": ""
  },
  {
    "status": "candidate_recent",
    "station_no": "568097",
    "station_name": "TBRG MOUNT KEIRA(KENTISH No.2)",
    "lat": -34.368503,
    "lon": 150.821006,
    "days_since_last_data": 280.1,
    "last_data_at": "2025-06-30T09:00:01.000+10:00",
    "first_data_at": "2020-03-03T23:30:11.000+10:00",
    "data_owner": ""
  },
  {
    "status": "candidate_recent",
    "station_no": "568071",
    "station_name": "TBRG UPPER AVON",
    "lat": -34.4614,
    "lon": 150.734644,
    "days_since_last_data": 280.1,
    "last_data_at": "2025-06-30T09:00:01.000+10:00",
    "first_data_at": "2015-12-02T09:43:21.000+10:00",
    "data_owner": ""
  },
  {
    "status": "candidate_recent",
    "station_no": "568045",
    "station_name": "WARRAGAMBA MET. STATION",
    "lat": -33.89013,
    "lon": 150.59334,
    "days_since_last_data": 280.1,
    "last_data_at": "2025-06-30T09:00:01.000+10:00",
    "first_data_at": "1981-01-01T00:00:00.000+10:00",
    "data_owner": "NSW - Water NSW"
  },
  {
    "status": "candidate_recent",
    "station_no": "567105",
    "station_name": "ANNANGROVE",
    "lat": -33.676,
    "lon": 150.9629,
    "days_since_last_data": 280.4,
    "last_data_at": "2025-06-30T03:00:01.000+10:00",
    "first_data_at": "2000-11-18T23:59:00.000+10:00",
    "data_owner": "NSW - Sydney Water Corporation (Sydney Water)"
  },
  {
    "status": "candidate_recent",
    "station_no": "567120",
    "station_name": "BROOKLYN STP",
    "lat": -33.55127841,
    "lon": 151.19587404,
    "days_since_last_data": 280.4,
    "last_data_at": "2025-06-30T03:00:01.000+10:00",
    "first_data_at": "2007-12-18T07:45:31.000+10:00",
    "data_owner": "NSW - Sydney Water Corporation (Sydney Water)"
  },
  {
    "status": "candidate_recent",
    "station_no": "567076",
    "station_name": "CASTLE HILL STP",
    "lat": -33.7111,
    "lon": 150.9842,
    "days_since_last_data": 280.4,
    "last_data_at": "2025-06-30T03:00:01.000+10:00",
    "first_data_at": "1983-07-29T20:30:00.000+10:00",
    "data_owner": "NSW - Sydney Water Corporation (Sydney Water)"
  },
  {
    "status": "candidate_recent",
    "station_no": "567102",
    "station_name": "DURAL (WPS14)",
    "lat": -33.6969,
    "lon": 151.0277,
    "days_since_last_data": 280.4,
    "last_data_at": "2025-06-30T03:00:01.000+10:00",
    "first_data_at": "1983-07-29T20:30:00.000+10:00",
    "data_owner": "NSW - Sydney Water Corporation (Sydney Water)"
  },
  {
    "status": "candidate_recent",
    "station_no": "567077",
    "station_name": "FAIRFIELD STP",
    "lat": -33.8807,
    "lon": 150.9504,
    "days_since_last_data": 280.4,
    "last_data_at": "2025-06-30T03:00:01.000+10:00",
    "first_data_at": "1980-05-15T13:36:00.000+10:00",
    "data_owner": "NSW - Sydney Water Corporation (Sydney Water)"
  },
  {
    "status": "candidate_recent",
    "station_no": "567078",
    "station_name": "GLENFIELD STP",
    "lat": -33.9827,
    "lon": 150.9071,
    "days_since_last_data": 280.4,
    "last_data_at": "2025-06-30T03:00:01.000+10:00",
    "first_data_at": "1983-08-30T11:00:00.000+10:00",
    "data_owner": "NSW - Sydney Water Corporation (Sydney Water)"
  },
  {
    "status": "candidate_recent",
    "station_no": "567107",
    "station_name": "PENRITH STP",
    "lat": -33.7413,
    "lon": 150.7007,
    "days_since_last_data": 280.4,
    "last_data_at": "2025-06-30T03:00:01.000+10:00",
    "first_data_at": "1991-08-31T16:12:00.000+10:00",
    "data_owner": "NSW - Sydney Water Corporation (Sydney Water)"
  },
  {
    "status": "candidate_recent",
    "station_no": "567089",
    "station_name": "PRESTONS DEPOT",
    "lat": -33.93902712,
    "lon": 150.87081055,
    "days_since_last_data": 280.4,
    "last_data_at": "2025-06-30T03:00:01.000+10:00",
    "first_data_at": "2014-08-12T18:24:31.000+10:00",
    "data_owner": ""
  },
  {
    "status": "candidate_recent",
    "station_no": "567084",
    "station_name": "QUAKERS HILL STP",
    "lat": -33.7365,
    "lon": 150.8783,
    "days_since_last_data": 280.4,
    "last_data_at": "2025-06-30T03:00:01.000+10:00",
    "first_data_at": "1990-10-23T13:30:00.000+10:00",
    "data_owner": "NSW - Sydney Water Corporation (Sydney Water)"
  },
  {
    "status": "candidate_recent",
    "station_no": "567085",
    "station_name": "RICHMOND STP",
    "lat": -33.608,
    "lon": 150.7671,
    "days_since_last_data": 280.4,
    "last_data_at": "2025-06-30T03:00:01.000+10:00",
    "first_data_at": "1991-08-13T10:30:00.000+10:00",
    "data_owner": "NSW - Sydney Water Corporation (Sydney Water)"
  },
  {
    "status": "candidate_recent",
    "station_no": "567100",
    "station_name": "RIVERSTONE STP",
    "lat": -33.6562,
    "lon": 150.8477,
    "days_since_last_data": 280.4,
    "last_data_at": "2025-06-30T03:00:01.000+10:00",
    "first_data_at": "1983-07-29T11:00:00.000+10:00",
    "data_owner": "NSW - Sydney Water Corporation (Sydney Water)"
  },
  {
    "status": "candidate_recent",
    "station_no": "567087",
    "station_name": "ST MARYS STP",
    "lat": -33.7342,
    "lon": 150.7692,
    "days_since_last_data": 280.4,
    "last_data_at": "2025-06-30T03:00:01.000+10:00",
    "first_data_at": "1983-08-02T12:00:00.000+10:00",
    "data_owner": "NSW - Sydney Water Corporation (Sydney Water)"
  },
  {
    "status": "candidate_recent",
    "station_no": "566178",
    "station_name": "WARRINGAH GOLF COURSE",
    "lat": -33.78006751,
    "lon": 151.26990037,
    "days_since_last_data": 280.4,
    "last_data_at": "2025-06-30T03:00:01.000+10:00",
    "first_data_at": "2017-02-13T12:23:35.000+10:00",
    "data_owner": ""
  },
  {
    "status": "candidate_recent",
    "station_no": "567115",
    "station_name": "WS0073 Mt Dorothy Reservoir Constitution Hill",
    "lat": -33.798,
    "lon": 150.969458,
    "days_since_last_data": 280.4,
    "last_data_at": "2025-06-30T03:00:01.000+10:00",
    "first_data_at": "2016-11-18T03:00:00.000+10:00",
    "data_owner": ""
  },
  {
    "status": "candidate_recent",
    "station_no": "00009",
    "station_name": "Cooma North Meteorological Station",
    "lat": -36.22333333,
    "lon": 149.13416667,
    "days_since_last_data": 281.1,
    "last_data_at": "2025-06-29T10:06:01.000+10:00",
    "first_data_at": "1991-08-20T09:40:58.000+10:00",
    "data_owner": "NSW - Snowy Hydro Limited"
  },
  {
    "status": "candidate_recent",
    "station_no": "566176",
    "station_name": "Asquith Bowling and Recreation Club",
    "lat": -33.6900515,
    "lon": 151.10124699,
    "days_since_last_data": 281.4,
    "last_data_at": "2025-06-29T03:00:01.000+10:00",
    "first_data_at": "2016-09-30T11:59:00.000+10:00",
    "data_owner": ""
  },
  {
    "status": "candidate_recent",
    "station_no": "566069",
    "station_name": "BANKSTOWN TROTTING CLUB",
    "lat": -33.93116471,
    "lon": 151.00794401,
    "days_since_last_data": 281.4,
    "last_data_at": "2025-06-29T03:00:01.000+10:00",
    "first_data_at": "2014-08-12T16:36:20.000+10:00",
    "data_owner": ""
  },
  {
    "status": "candidate_recent",
    "station_no": "566075",
    "station_name": "BARDEN RIDGE DAM",
    "lat": -34.02461198,
    "lon": 150.99987203,
    "days_since_last_data": 281.4,
    "last_data_at": "2025-06-29T03:00:01.000+10:00",
    "first_data_at": "2012-08-22T09:17:58.000+10:00",
    "data_owner": ""
  },
  {
    "status": "candidate_recent",
    "station_no": "566071",
    "station_name": "BELROSE BOWLING CLUB",
    "lat": -33.73384534,
    "lon": 151.21909427,
    "days_since_last_data": 281.4,
    "last_data_at": "2025-06-29T03:00:01.000+10:00",
    "first_data_at": "1990-03-12T10:20:00.000+10:00",
    "data_owner": "NSW - Sydney Water Corporation (Sydney Water)"
  },
  {
    "status": "candidate_recent",
    "station_no": "563083",
    "station_name": "BLACKHEATH GOLF COURSE",
    "lat": -33.646,
    "lon": 150.2901,
    "days_since_last_data": 281.4,
    "last_data_at": "2025-06-29T03:00:01.000+10:00",
    "first_data_at": "2008-09-28T23:59:00.000+10:00",
    "data_owner": "NSW - Sydney Water Corporation (Sydney Water)"
  },
  {
    "status": "candidate_recent",
    "station_no": "563083",
    "station_name": "BLACKHEATH GOLF COURSE",
    "lat": -33.646,
    "lon": 150.2901,
    "days_since_last_data": 281.4,
    "last_data_at": "2025-06-29T03:00:01.000+10:00",
    "first_data_at": "2008-09-28T23:59:00.000+10:00",
    "data_owner": "NSW - Sydney Water Corporation (Sydney Water)"
  },
  {
    "status": "candidate_recent",
    "station_no": "567157",
    "station_name": "BLACKTOWN BOWLING CLUB",
    "lat": -33.79421158,
    "lon": 150.8952111,
    "days_since_last_data": 281.4,
    "last_data_at": "2025-06-29T03:00:01.000+10:00",
    "first_data_at": "2012-05-09T14:22:21.000+10:00",
    "data_owner": "NSW - Sydney Water Corporation (Sydney Water)"
  },
  {
    "status": "candidate_recent",
    "station_no": "567154",
    "station_name": "CABRAMATTA BOWLING CLUB",
    "lat": -33.89569242,
    "lon": 150.94670587,
    "days_since_last_data": 281.4,
    "last_data_at": "2025-06-29T03:00:01.000+10:00",
    "first_data_at": "1992-01-22T15:38:00.000+10:00",
    "data_owner": "NSW - Sydney Water Corporation (Sydney Water)"
  },
  {
    "status": "candidate_recent",
    "station_no": "566098",
    "station_name": "CARINGBAH BOWLING CLUB",
    "lat": -34.03579117,
    "lon": 151.12061847,
    "days_since_last_data": 281.4,
    "last_data_at": "2025-06-29T03:00:01.000+10:00",
    "first_data_at": "1991-12-23T11:54:00.000+10:00",
    "data_owner": "NSW - Sydney Water Corporation (Sydney Water)"
  },
  {
    "status": "candidate_recent",
    "station_no": "566064",
    "station_name": "CONCORD GREENLEES B.C. FORMERLY WESTS RUGBY CLUB",
    "lat": -33.8551,
    "lon": 151.1075,
    "days_since_last_data": 281.4,
    "last_data_at": "2025-06-29T03:00:01.000+10:00",
    "first_data_at": "1988-06-01T14:17:00.000+10:00",
    "data_owner": "NSW - Sydney Water Corporation (Sydney Water)"
  },
  {
    "status": "candidate_recent",
    "station_no": "566018",
    "station_name": "CRONULLA WRP",
    "lat": -34.0308,
    "lon": 151.1643,
    "days_since_last_data": 281.4,
    "last_data_at": "2025-06-29T03:00:01.000+10:00",
    "first_data_at": "1979-12-31T09:00:00.000+10:00",
    "data_owner": "NSW - Sydney Water Corporation (Sydney Water)"
  },
  {
    "status": "candidate_recent",
    "station_no": "00015",
    "station_name": "Cabramurra Airstrip",
    "lat": -35.93166667,
    "lon": 148.39277778,
    "days_since_last_data": 281.4,
    "last_data_at": "2025-06-29T02:16:01.000+10:00",
    "first_data_at": "2015-07-11T13:39:04.000+10:00",
    "data_owner": "NSW - Snowy Hydro Limited"
  },
  {
    "status": "candidate_recent",
    "station_no": "00014",
    "station_name": "Cabramurra Meteorological Station",
    "lat": -35.93416667,
    "lon": 148.37916667,
    "days_since_last_data": 281.4,
    "last_data_at": "2025-06-29T02:16:01.000+10:00",
    "first_data_at": "1954-08-16T09:00:00.000+10:00",
    "data_owner": "NSW - Snowy Hydro Limited"
  },
  {
    "status": "candidate_recent",
    "station_no": "566068",
    "station_name": "DEE WHY BOWLING CLUB",
    "lat": -33.7389,
    "lon": 151.2814,
    "days_since_last_data": 281.4,
    "last_data_at": "2025-06-29T03:00:01.000+10:00",
    "first_data_at": "1990-02-23T15:12:00.000+10:00",
    "data_owner": "NSW - Sydney Water Corporation (Sydney Water)"
  },
  {
    "status": "candidate_recent",
    "station_no": "566085",
    "station_name": "EAST LINDFIELD BOWLING CLUB",
    "lat": -33.7629,
    "lon": 151.1945,
    "days_since_last_data": 281.4,
    "last_data_at": "2025-06-29T03:00:01.000+10:00",
    "first_data_at": "1990-09-19T14:40:00.000+10:00",
    "data_owner": "NSW - Sydney Water Corporation (Sydney Water)"
  },
  {
    "status": "candidate_recent",
    "station_no": "566028",
    "station_name": "EASTLAKES SWC DEPOT",
    "lat": -33.92560652,
    "lon": 151.22030786,
    "days_since_last_data": 281.4,
    "last_data_at": "2025-06-29T03:00:01.000+10:00",
    "first_data_at": "1973-08-28T15:35:00.000+10:00",
    "data_owner": "NSW - Sydney Water Corporation (Sydney Water)"
  },
  {
    "status": "candidate_recent",
    "station_no": "00203",
    "station_name": "Eucumbene Dam Meteorological Station",
    "lat": -85.5274592344305,
    "lon": 56.7669133062762,
    "days_since_last_data": 281.4,
    "last_data_at": "2025-06-29T02:18:01.000+10:00",
    "first_data_at": "1960-07-20T09:25:00.000+10:00",
    "data_owner": "NSW - Snowy Hydro Limited"
  },
  {
    "status": "candidate_recent",
    "station_no": "563064",
    "station_name": "GLENBROOK RAAF (FORMERLY GLENBROOK STP)",
    "lat": -33.764,
    "lon": 150.635,
    "days_since_last_data": 281.4,
    "last_data_at": "2025-06-29T03:00:01.000+10:00",
    "first_data_at": "1997-06-28T12:05:20.000+10:00",
    "data_owner": "NSW - Sydney Water Corporation (Sydney Water)"
  },
  {
    "status": "candidate_recent",
    "station_no": "00214",
    "station_name": "Geehi Dam Meteorological Station",
    "lat": -36.30305556,
    "lon": 148.315,
    "days_since_last_data": 281.4,
    "last_data_at": "2025-06-29T02:20:01.000+10:00",
    "first_data_at": "1969-10-06T15:10:00.000+10:00",
    "data_owner": "NSW - Snowy Hydro Limited"
  },
  {
    "status": "candidate_recent",
    "station_no": "00008",
    "station_name": "Guthega Power Station Meteorological Station",
    "lat": -36.35222222,
    "lon": 148.41611111,
    "days_since_last_data": 281.4,
    "last_data_at": "2025-06-29T02:16:01.000+10:00",
    "first_data_at": "1969-08-26T08:00:00.000+10:00",
    "data_owner": "NSW - Snowy Hydro Limited"
  },
  {
    "status": "candidate_recent",
    "station_no": "563065",
    "station_name": "HAZELBROOK STP",
    "lat": -33.7159,
    "lon": 150.4593,
    "days_since_last_data": 281.4,
    "last_data_at": "2025-06-29T03:00:01.000+10:00",
    "first_data_at": "1990-04-19T15:26:00.000+10:00",
    "data_owner": "NSW - Sydney Water Corporation (Sydney Water)"
  },
  {
    "status": "candidate_recent",
    "station_no": "566053",
    "station_name": "HORNSBY HEIGHTS WWTP",
    "lat": -33.6672,
    "lon": 151.1047,
    "days_since_last_data": 281.4,
    "last_data_at": "2025-06-29T03:00:01.000+10:00",
    "first_data_at": "1990-07-20T10:00:00.000+10:00",
    "data_owner": "NSW - Sydney Water Corporation (Sydney Water)"
  },
  {
    "status": "candidate_recent",
    "station_no": "566174",
    "station_name": "Helensburgh WS0049",
    "lat": -34.18364711,
    "lon": 150.98693998,
    "days_since_last_data": 281.4,
    "last_data_at": "2025-06-29T03:00:01.000+10:00",
    "first_data_at": "2014-06-26T10:45:14.000+10:00",
    "data_owner": "NSW - Sydney Water Corporation (Sydney Water)"
  },
  {
    "status": "candidate_recent",
    "station_no": "00018",
    "station_name": "Island Bend Raingauge",
    "lat": -36.31388889,
    "lon": 148.48055556,
    "days_since_last_data": 281.4,
    "last_data_at": "2025-06-29T02:16:01.000+10:00",
    "first_data_at": "1995-02-27T13:37:35.000+10:00",
    "data_owner": "NSW - Snowy Hydro Limited"
  },
  {
    "status": "candidate_recent",
    "station_no": "00072",
    "station_name": "Jagungal Raingauge",
    "lat": -36.13669183,
    "lon": 148.3881655,
    "days_since_last_data": 281.4,
    "last_data_at": "2025-06-29T02:18:01.000+10:00",
    "first_data_at": "1968-09-26T13:25:00.000+10:00",
    "data_owner": "NSW - Snowy Hydro Limited"
  },
  {
    "status": "candidate_recent",
    "station_no": "00004",
    "station_name": "Jindabyne Meteorological Station",
    "lat": -36.41666667,
    "lon": 148.60916667,
    "days_since_last_data": 281.4,
    "last_data_at": "2025-06-29T02:16:01.000+10:00",
    "first_data_at": "1969-10-10T00:00:00.000+10:00",
    "data_owner": "NSW - Snowy Hydro Limited"
  },
  {
    "status": "candidate_recent",
    "station_no": "567167",
    "station_name": "KELLYVILLE (CASTLEBROOK CEMETERY)",
    "lat": -33.6961,
    "lon": 150.9194,
    "days_since_last_data": 281.4,
    "last_data_at": "2025-06-29T03:00:01.000+10:00",
    "first_data_at": "1993-06-23T11:16:00.000+10:00",
    "data_owner": "NSW - Sydney Water Corporation (Sydney Water)"
  },
  {
    "status": "candidate_recent",
    "station_no": "567148",
    "station_name": "KINGS LANGLEY (NSW SOCCER FEDERATION)",
    "lat": -33.7403,
    "lon": 150.9459,
    "days_since_last_data": 281.4,
    "last_data_at": "2025-06-29T03:00:01.000+10:00",
    "first_data_at": "1990-09-05T09:58:10.000+10:00",
    "data_owner": "NSW - Sydney Water Corporation (Sydney Water)"
  },
  {
    "status": "candidate_recent",
    "station_no": "566072",
    "station_name": "KYLE BAY (CLUB BLAKEHURST)",
    "lat": -33.98846442,
    "lon": 151.10235325,
    "days_since_last_data": 281.4,
    "last_data_at": "2025-06-29T03:00:01.000+10:00",
    "first_data_at": "2010-02-17T13:01:59.000+10:00",
    "data_owner": "NSW - Sydney Water Corporation (Sydney Water)"
  },
  {
    "status": "candidate_recent",
    "station_no": "95907",
    "station_name": "Khancoban Meteorological Station",
    "lat": -36.22111111,
    "lon": 148.12694444,
    "days_since_last_data": 281.4,
    "last_data_at": "2025-06-29T02:46:01.000+10:00",
    "first_data_at": "1961-04-21T09:00:00.000+10:00",
    "data_owner": "NSW - Snowy Hydro Limited"
  },
  {
    "status": "candidate_recent",
    "station_no": "563070",
    "station_name": "LINDEN (WOODFORD CK DAM)",
    "lat": -33.6995035,
    "lon": 150.48991297,
    "days_since_last_data": 281.4,
    "last_data_at": "2025-06-29T03:00:01.000+10:00",
    "first_data_at": "1983-12-06T14:00:00.000+10:00",
    "data_owner": ""
  },
  {
    "status": "candidate_recent",
    "station_no": "566088",
    "station_name": "MALABAR STP",
    "lat": -33.9599,
    "lon": 151.2515,
    "days_since_last_data": 281.4,
    "last_data_at": "2025-06-29T03:00:01.000+10:00",
    "first_data_at": "1990-12-17T08:32:00.000+10:00",
    "data_owner": "NSW - Sydney Water Corporation (Sydney Water)"
  },
  {
    "status": "candidate_recent",
    "station_no": "566026",
    "station_name": "MARRICKVILLE BOWLING CLUB",
    "lat": -33.90986406,
    "lon": 151.16407642,
    "days_since_last_data": 281.4,
    "last_data_at": "2025-06-29T03:00:01.000+10:00",
    "first_data_at": "1979-12-31T09:00:00.000+10:00",
    "data_owner": "NSW - Sydney Water Corporation (Sydney Water)"
  },
  {
    "status": "candidate_recent",
    "station_no": "566175",
    "station_name": "MENAI RESERVOIR",
    "lat": -34.02227568,
    "lon": 151.01261008,
    "days_since_last_data": 281.4,
    "last_data_at": "2025-06-29T03:00:01.000+10:00",
    "first_data_at": "2014-08-08T08:15:37.000+10:00",
    "data_owner": ""
  },
  {
    "status": "candidate_recent",
    "station_no": "566047",
    "station_name": "MORTDALE BOWLING CLUB",
    "lat": -33.97458282,
    "lon": 151.08076081,
    "days_since_last_data": 281.4,
    "last_data_at": "2025-06-29T03:00:01.000+10:00",
    "first_data_at": "1977-12-12T12:10:00.000+10:00",
    "data_owner": "NSW - Sydney Water Corporation (Sydney Water)"
  },
  {
    "status": "candidate_recent",
    "station_no": "566027",
    "station_name": "MOSMAN - TARONGA ZOO (formerly BRADLEYS HEAD BC)",
    "lat": -33.8435,
    "lon": 151.2382,
    "days_since_last_data": 281.4,
    "last_data_at": "2025-06-29T03:00:01.000+10:00",
    "first_data_at": "1990-03-12T11:58:00.000+10:00",
    "data_owner": "NSW - Sydney Water Corporation (Sydney Water)"
  },
  {
    "status": "candidate_recent",
    "station_no": "563149",
    "station_name": "MOUNT VICTORIA",
    "lat": -33.58516804,
    "lon": 150.25868384,
    "days_since_last_data": 281.4,
    "last_data_at": "2025-06-29T03:00:01.000+10:00",
    "first_data_at": "2008-11-20T23:59:00.000+10:00",
    "data_owner": "NSW - Sydney Water Corporation (Sydney Water)"
  },
  {
    "status": "candidate_recent",
    "station_no": "563069",
    "station_name": "NORTH RICHMOND WWTP",
    "lat": -33.5748,
    "lon": 150.7156,
    "days_since_last_data": 281.4,
    "last_data_at": "2025-06-29T03:00:01.000+10:00",
    "first_data_at": "1997-06-28T09:47:10.000+10:00",
    "data_owner": "NSW - Sydney Water Corporation (Sydney Water)"
  },
  {
    "status": "candidate_recent",
    "station_no": "566008",
    "station_name": "NORTH RYDE GC",
    "lat": -33.800527,
    "lon": 151.120193,
    "days_since_last_data": 281.4,
    "last_data_at": "2025-06-29T03:00:01.000+10:00",
    "first_data_at": "2014-08-11T20:46:48.000+10:00",
    "data_owner": ""
  },
  {
    "status": "candidate_recent",
    "station_no": "566036",
    "station_name": "POTTS HILL RESERVOIR",
    "lat": -33.8893,
    "lon": 151.0368,
    "days_since_last_data": 281.4,
    "last_data_at": "2025-06-29T03:00:01.000+10:00",
    "first_data_at": "1981-12-29T09:54:00.000+10:00",
    "data_owner": "NSW - Sydney Water Corporation (Sydney Water)"
  },
  {
    "status": "candidate_recent",
    "station_no": "566073",
    "station_name": "PYMBLE BOWLING CLUB",
    "lat": -33.7408,
    "lon": 151.1394,
    "days_since_last_data": 281.4,
    "last_data_at": "2025-06-29T03:00:01.000+10:00",
    "first_data_at": "1987-09-16T15:32:00.000+10:00",
    "data_owner": "NSW - Sydney Water Corporation (Sydney Water)"
  },
  {
    "status": "candidate_recent",
    "station_no": "566099",
    "station_name": "RANDWICK RACECOURSE",
    "lat": -33.9119,
    "lon": 151.2273,
    "days_since_last_data": 281.4,
    "last_data_at": "2025-06-29T03:00:01.000+10:00",
    "first_data_at": "1991-11-29T12:26:00.000+10:00",
    "data_owner": "NSW - Sydney Water Corporation (Sydney Water)"
  },
  {
    "status": "candidate_recent",
    "station_no": "567163",
    "station_name": "REGENTVILLE RURAL FIRE SERVICE",
    "lat": -33.7745,
    "lon": 150.6716,
    "days_since_last_data": 281.4,
    "last_data_at": "2025-06-29T03:00:01.000+10:00",
    "first_data_at": "1992-09-09T09:04:00.000+10:00",
    "data_owner": "NSW - Sydney Water Corporation (Sydney Water)"
  },
  {
    "status": "candidate_recent",
    "station_no": "566031",
    "station_name": "REVESBY BOWLING CLUB (formerly PADSTOW)",
    "lat": -33.9548,
    "lon": 151.0198,
    "days_since_last_data": 281.4,
    "last_data_at": "2025-06-29T03:00:01.000+10:00",
    "first_data_at": "2005-11-09T07:32:01.000+10:00",
    "data_owner": "NSW - Sydney Water Corporation (Sydney Water)"
  },
  {
    "status": "candidate_recent",
    "station_no": "566082",
    "station_name": "Rosnay GC (ex Auburn BC)",
    "lat": -33.865097,
    "lon": 151.018082,
    "days_since_last_data": 281.4,
    "last_data_at": "2025-06-29T03:00:01.000+10:00",
    "first_data_at": "1990-10-03T12:32:00.000+10:00",
    "data_owner": "NSW - Sydney Water Corporation (Sydney Water)"
  },
  {
    "status": "candidate_recent",
    "station_no": "566078",
    "station_name": "SOUTH CRONULLA BC (formerly SOUTH CRONULLA PS)",
    "lat": -34.07,
    "lon": 151.1517,
    "days_since_last_data": 281.4,
    "last_data_at": "2025-06-29T03:00:01.000+10:00",
    "first_data_at": "1990-02-09T15:26:00.000+10:00",
    "data_owner": "NSW - Sydney Water Corporation (Sydney Water)"
  },
  {
    "status": "candidate_recent",
    "station_no": "566092",
    "station_name": "SUTHERLAND BOWLING CLUB",
    "lat": -34.0295,
    "lon": 151.0711,
    "days_since_last_data": 281.4,
    "last_data_at": "2025-06-29T03:00:01.000+10:00",
    "first_data_at": "1991-11-06T12:32:00.000+10:00",
    "data_owner": "NSW - Sydney Water Corporation (Sydney Water)"
  },
  {
    "status": "candidate_recent",
    "station_no": "CS033",
    "station_name": "Swampy Plain (Geehi Airstrip) Rain Gauge",
    "lat": -36.38359078,
    "lon": 148.18442783,
    "days_since_last_data": 281.4,
    "last_data_at": "2025-06-29T02:48:01.000+10:00",
    "first_data_at": "2004-08-05T16:39:04.000+10:00",
    "data_owner": "NSW - Snowy Hydro Limited"
  },
  {
    "status": "candidate_recent",
    "station_no": "00215",
    "station_name": "Talbingo Meteorological Station",
    "lat": -35.58555556,
    "lon": 148.29583333,
    "days_since_last_data": 281.4,
    "last_data_at": "2025-06-29T02:20:01.000+10:00",
    "first_data_at": "1969-10-11T00:00:00.000+10:00",
    "data_owner": "NSW - Snowy Hydro Limited"
  },
  {
    "status": "candidate_recent",
    "station_no": "00185",
    "station_name": "Tantangara Dam Meteorological Station",
    "lat": -85.5274595166563,
    "lon": 56.7669505387704,
    "days_since_last_data": 281.4,
    "last_data_at": "2025-06-29T02:18:01.000+10:00",
    "first_data_at": "1969-10-01T07:00:00.000+10:00",
    "data_owner": "NSW - Snowy Hydro Limited"
  },
  {
    "status": "candidate_recent",
    "station_no": "00184",
    "station_name": "Tooma Dam Meteorological Station",
    "lat": -36.05333333,
    "lon": 148.27777778,
    "days_since_last_data": 281.4,
    "last_data_at": "2025-06-29T02:18:01.000+10:00",
    "first_data_at": "1964-09-22T13:50:00.000+10:00",
    "data_owner": "NSW - Snowy Hydro Limited"
  },
  {
    "status": "candidate_recent",
    "station_no": "566038",
    "station_name": "VAUCLUSE BOWLING CLUB",
    "lat": -33.8578,
    "lon": 151.2788,
    "days_since_last_data": 281.4,
    "last_data_at": "2025-06-29T03:00:01.000+10:00",
    "first_data_at": "1979-12-28T12:20:00.000+10:00",
    "data_owner": "NSW - Sydney Water Corporation (Sydney Water)"
  },
  {
    "status": "candidate_recent",
    "station_no": "566114",
    "station_name": "WAVERLEY RESERVOIR WS0134",
    "lat": -33.895696,
    "lon": 151.255581,
    "days_since_last_data": 281.4,
    "last_data_at": "2025-06-29T03:00:01.000+10:00",
    "first_data_at": "1995-01-05T09:24:00.000+10:00",
    "data_owner": "NSW - Sydney Water Corporation (Sydney Water)"
  },
  {
    "status": "candidate_recent",
    "station_no": "563061",
    "station_name": "WENTWORTH FALLS (BODINGTON)",
    "lat": -33.73273195,
    "lon": 150.3885237,
    "days_since_last_data": 281.4,
    "last_data_at": "2025-06-29T03:00:01.000+10:00",
    "first_data_at": "1990-08-15T13:04:00.000+10:00",
    "data_owner": "NSW - Sydney Water Corporation (Sydney Water)"
  },
  {
    "status": "candidate_recent",
    "station_no": "563084",
    "station_name": "WILBERFORCE SPS1168",
    "lat": -33.55929164,
    "lon": 150.83685332,
    "days_since_last_data": 281.4,
    "last_data_at": "2025-06-29T03:00:01.000+10:00",
    "first_data_at": "2011-02-02T07:36:15.000+10:00",
    "data_owner": "NSW - Sydney Water Corporation (Sydney Water)"
  },
  {
    "status": "candidate_recent",
    "station_no": "563146",
    "station_name": "WINMALEE WWTP",
    "lat": -33.6767,
    "lon": 150.625,
    "days_since_last_data": 281.4,
    "last_data_at": "2025-06-29T03:00:01.000+10:00",
    "first_data_at": "1990-04-19T12:22:00.000+10:00",
    "data_owner": "NSW - Sydney Water Corporation (Sydney Water)"
  },
  {
    "status": "candidate_recent",
    "station_no": "563051",
    "station_name": "SHOOTERS HILL(TUGLOW HOLE MTN)",
    "lat": -34.00166365,
    "lon": 149.97297115,
    "days_since_last_data": 284.0,
    "last_data_at": "2025-06-26T11:18:31.000+10:00",
    "first_data_at": "1981-03-12T13:32:00.000+10:00",
    "data_owner": ""
  },
  {
    "status": "candidate_recent",
    "station_no": "563037",
    "station_name": "BURRAGORANG TRIG",
    "lat": -34.06434933,
    "lon": 150.40622967,
    "days_since_last_data": 284.1,
    "last_data_at": "2025-06-26T09:00:01.000+10:00",
    "first_data_at": "1982-06-22T11:30:00.000+10:00",
    "data_owner": ""
  },
  {
    "status": "candidate_recent",
    "station_no": "570340",
    "station_name": "GOULBURN (SPRINGFIELD)",
    "lat": -34.90694497,
    "lon": 149.66916688,
    "days_since_last_data": 284.1,
    "last_data_at": "2025-06-26T09:00:01.000+10:00",
    "first_data_at": "1986-10-18T17:24:00.000+10:00",
    "data_owner": ""
  },
  {
    "status": "candidate_recent",
    "station_no": "563043",
    "station_name": "KANANGRA WALLS",
    "lat": -33.98855886,
    "lon": 150.10890473,
    "days_since_last_data": 284.1,
    "last_data_at": "2025-06-26T09:00:01.000+10:00",
    "first_data_at": "1981-06-10T10:20:00.000+10:00",
    "data_owner": ""
  },
  {
    "status": "candidate_recent",
    "station_no": "563059",
    "station_name": "KATOOMBA (CASCADE CK DAM No.1)",
    "lat": -33.68881,
    "lon": 150.30439,
    "days_since_last_data": 284.1,
    "last_data_at": "2025-06-26T09:00:01.000+10:00",
    "first_data_at": "1983-12-07T09:15:00.000+10:00",
    "data_owner": "NSW - Water NSW"
  },
  {
    "status": "candidate_recent",
    "station_no": "568140",
    "station_name": "NATTAI CAUSEWAY TBRG",
    "lat": -34.14447,
    "lon": 150.42556,
    "days_since_last_data": 284.1,
    "last_data_at": "2025-06-26T09:00:01.000+10:00",
    "first_data_at": "2025-03-07T10:46:00.000+10:00",
    "data_owner": ""
  },
  {
    "status": "candidate_recent",
    "station_no": "563061",
    "station_name": "WENTWORTH FALLS (BODINGTON)",
    "lat": -33.73282,
    "lon": 150.3886,
    "days_since_last_data": 284.1,
    "last_data_at": "2025-06-26T09:00:01.000+10:00",
    "first_data_at": "1990-08-15T13:04:00.000+10:00",
    "data_owner": ""
  },
  {
    "status": "candidate_recent",
    "station_no": "563053",
    "station_name": "WOMBAT PINCH",
    "lat": -34.184814,
    "lon": 149.960761,
    "days_since_last_data": 284.1,
    "last_data_at": "2025-06-26T09:00:01.000+10:00",
    "first_data_at": "1981-06-10T13:46:00.000+10:00",
    "data_owner": ""
  },
  {
    "status": "candidate_recent",
    "station_no": "563056",
    "station_name": "YERRANDERIE (KIARAMBA SPRINGS)",
    "lat": -34.031331,
    "lon": 150.208914,
    "days_since_last_data": 284.1,
    "last_data_at": "2025-06-26T09:00:01.000+10:00",
    "first_data_at": "1981-05-12T09:25:00.000+10:00",
    "data_owner": ""
  },
  {
    "status": "candidate_recent",
    "station_no": "568296",
    "station_name": "TBRG THURNS ROAD",
    "lat": -34.145047,
    "lon": 150.645806,
    "days_since_last_data": 284.3,
    "last_data_at": "2025-06-26T05:38:00.000+10:00",
    "first_data_at": "1991-01-23T14:19:59.000+10:00",
    "data_owner": "NSW - Water NSW"
  },
  {
    "status": "candidate_recent",
    "station_no": "570338",
    "station_name": "BUNGENDORE (MULLOON TRIG)",
    "lat": -35.270176,
    "lon": 149.601989,
    "days_since_last_data": 284.7,
    "last_data_at": "2025-06-25T17:44:40.000+10:00",
    "first_data_at": "2020-05-20T13:30:00.000+10:00",
    "data_owner": ""
  },
  {
    "status": "candidate_recent",
    "station_no": "568295",
    "station_name": "TBRG LAKESLAND ROAD",
    "lat": -34.182256,
    "lon": 150.551728,
    "days_since_last_data": 284.7,
    "last_data_at": "2025-06-25T19:30:14.000+10:00",
    "first_data_at": "1990-12-04T10:59:59.000+10:00",
    "data_owner": "NSW - Water NSW"
  },
  {
    "status": "candidate_recent",
    "station_no": "570350",
    "station_name": "GOULBURN (WATER TREATMENT WORKS)",
    "lat": -34.74897778,
    "lon": 149.6962917,
    "days_since_last_data": 284.9,
    "last_data_at": "2025-06-25T13:59:20.000+10:00",
    "first_data_at": "1990-12-19T10:18:00.000+10:00",
    "data_owner": ""
  },
  {
    "status": "candidate_recent",
    "station_no": "570341",
    "station_name": "GOULBURN (GUNDOWRINGA)",
    "lat": -34.54388918,
    "lon": 149.57388847,
    "days_since_last_data": 286.1,
    "last_data_at": "2025-06-24T09:47:40.000+10:00",
    "first_data_at": "1987-01-18T12:02:00.000+10:00",
    "data_owner": ""
  },
  {
    "status": "candidate_recent",
    "station_no": "570352",
    "station_name": "Taralga Summerlee",
    "lat": -34.4164,
    "lon": 149.8667,
    "days_since_last_data": 286.1,
    "last_data_at": "2025-06-24T10:17:50.000+10:00",
    "first_data_at": "2019-05-23T09:00:00.000+10:00",
    "data_owner": ""
  },
  {
    "status": "candidate_recent",
    "station_no": "568081",
    "station_name": "WILDES MEADOW",
    "lat": -34.60431346,
    "lon": 150.51134865,
    "days_since_last_data": 287.1,
    "last_data_at": "2025-06-23T09:00:00.000+10:00",
    "first_data_at": "2020-03-02T09:00:00.000+10:00",
    "data_owner": ""
  },
  {
    "status": "candidate_recent",
    "station_no": "DAM_MANGRV.1",
    "station_name": "DAM-MANGRV.Dam_WaterStorage_ML_BOM2012",
    "lat": -33.2174174735043,
    "lon": 151.119433270541,
    "days_since_last_data": 287.5,
    "last_data_at": "2025-06-22T23:00:01.000+10:00",
    "first_data_at": "2012-01-29T20:59:59.000+10:00",
    "data_owner": "NSW - Gosford City Council"
  },
  {
    "status": "candidate_recent",
    "station_no": "DAM_MOONEY.1",
    "station_name": "DAM-MOONEY.Dam_WaterStorage_ML_BOM2012",
    "lat": -33.3763376646028,
    "lon": 151.248909924315,
    "days_since_last_data": 287.5,
    "last_data_at": "2025-06-22T23:00:01.000+10:00",
    "first_data_at": "2014-07-21T23:00:00.000+10:00",
    "data_owner": "NSW - Gosford City Council"
  },
  {
    "status": "candidate_recent",
    "station_no": "WTP_S.1",
    "station_name": "WTP-S.Rainfall_mm",
    "lat": -33.4151974926437,
    "lon": 151.274311574553,
    "days_since_last_data": 287.5,
    "last_data_at": "2025-06-22T23:00:01.000+10:00",
    "first_data_at": "1992-07-01T00:00:00.000+10:00",
    "data_owner": "NSW - Gosford City Council"
  },
  {
    "status": "candidate_recent",
    "station_no": "568083",
    "station_name": "SHELLEYS FLAT",
    "lat": -34.73949976,
    "lon": 149.98497488,
    "days_since_last_data": 294.1,
    "last_data_at": "2025-06-16T09:00:01.000+10:00",
    "first_data_at": "2007-05-31T14:32:15.000+10:00",
    "data_owner": ""
  },
  {
    "status": "candidate_recent",
    "station_no": "047058",
    "station_name": "MENINDEE DWR DEPOT (CBM)",
    "lat": -32.390190378,
    "lon": 142.416572175,
    "days_since_last_data": 302.6,
    "last_data_at": "2025-06-07T20:24:22.000+10:00",
    "first_data_at": "2010-08-20T14:49:52.000+10:00",
    "data_owner": "NSW - Water NSW"
  },
  {
    "status": "candidate_recent",
    "station_no": "568067",
    "station_name": "TBRG BETH SALEM",
    "lat": -34.326108,
    "lon": 150.848406,
    "days_since_last_data": 307.9,
    "last_data_at": "2025-06-02T15:11:41.000+10:00",
    "first_data_at": "2016-02-24T08:19:23.000+10:00",
    "data_owner": ""
  },
  {
    "status": "candidate_recent",
    "station_no": "00300",
    "station_name": "Adaminaby Tipping Bucket Raingauge",
    "lat": -35.99254218,
    "lon": 148.78055565,
    "days_since_last_data": 309.5,
    "last_data_at": "2025-06-01T00:01:01.000+10:00",
    "first_data_at": "2000-11-26T13:35:00.000+10:00",
    "data_owner": "NSW - Snowy Hydro Limited"
  },
  {
    "status": "candidate_recent",
    "station_no": "563047",
    "station_name": "KATOOMBA (NARROW NECK)",
    "lat": -33.78969547,
    "lon": 150.26120163,
    "days_since_last_data": 313.1,
    "last_data_at": "2025-05-28T09:58:07.000+10:00",
    "first_data_at": "1981-04-22T12:40:00.000+10:00",
    "data_owner": ""
  },
  {
    "status": "candidate_recent",
    "station_no": "563046",
    "station_name": "MCMAHONS LOOKOUT",
    "lat": -33.88787,
    "lon": 150.38569,
    "days_since_last_data": 362.0,
    "last_data_at": "2025-04-09T12:01:33.000+10:00",
    "first_data_at": "1981-04-23T09:30:00.000+10:00",
    "data_owner": ""
  }
]