{
  "generated_at": "2026-04-06T01:40:54.097880+00:00",
  "existing_station_cache_count": 580,
  "nsw_rainfall_feature_count": 695,
  "classification_counts": {
    "existing_station_no": 68,
    "candidate_recent": 386,
    "candidate_stale": 219,
    "existing_nearby": 19,
    "existing_name": 3
  },
  "recent_candidate_count": 386,
  "stale_candidate_count": 219,
  "curated_candidate_count": 144,
  "top_recent_candidates": [
    {
      "status": "candidate_recent",
      "station_no": "570823",
      "station_name": "Gordon Bore (BMR No. L10) Pluviograph",
      "lat": -35.46180556,
      "lon": 149.09061111,
      "days_since_last_data": -9400.6,
      "last_data_at": "2052-01-01T01:00:01.000+10:00",
      "first_data_at": "1995-05-24T12:46:00.000+10:00",
      "data_owner": "ACT - Environment, Planning and Sustainable Development Directorate"
    },
    {
      "status": "candidate_recent",
      "station_no": "222209",
      "station_name": "SNOWY RIVER @ MCKILLOP BRIDGE",
      "lat": -37.08362756,
      "lon": 148.4132551,
      "days_since_last_data": 279.1,
      "last_data_at": "2025-07-01T10:00:01.000+10:00",
      "first_data_at": "1992-11-06T18:46:59.000+10:00",
      "data_owner": "VIC - Department of Energy, Environment and Climate Action"
    },
    {
      "status": "candidate_recent",
      "station_no": "568171",
      "station_name": "ALBION PARK BOWLING CLUB",
      "lat": -34.5703,
      "lon": 150.7684,
      "days_since_last_data": 279.2,
      "last_data_at": "2025-07-01T06:05:20.000+10:00",
      "first_data_at": "1990-10-31T08:56:00.000+10:00",
      "data_owner": "NSW - Sydney Water Corporation (Sydney Water)"
    },
    {
      "status": "candidate_recent",
      "station_no": "568162",
      "station_name": "BALGOWNIE RESERVOIR",
      "lat": -34.3928,
      "lon": 150.8703,
      "days_since_last_data": 279.2,
      "last_data_at": "2025-07-01T05:54:52.000+10:00",
      "first_data_at": "1990-01-03T12:30:00.000+10:00",
      "data_owner": "NSW - Sydney Water Corporation (Sydney Water)"
    },
    {
      "status": "candidate_recent",
      "station_no": "5CPS02",
      "station_name": "BELMORE BOWLING CLUB",
      "lat": -33.9182,
      "lon": 151.0922,
      "days_since_last_data": 279.2,
      "last_data_at": "2025-07-01T06:25:35.000+10:00",
      "first_data_at": "2014-08-28T09:00:08.000+10:00",
      "data_owner": ""
    },
    {
      "status": "candidate_recent",
      "station_no": "568170",
      "station_name": "BOMBO STP",
      "lat": -34.652,
      "lon": 150.86,
      "days_since_last_data": 279.2,
      "last_data_at": "2025-07-01T05:59:04.000+10:00",
      "first_data_at": "1990-10-02T15:26:00.000+10:00",
      "data_owner": "NSW - Sydney Water Corporation (Sydney Water)"
    },
    {
      "status": "candidate_recent",
      "station_no": "568172",
      "station_name": "BULLI BOWLING CLUB (FORMERLY THIRROUL BC)",
      "lat": -34.3319,
      "lon": 150.9134,
      "days_since_last_data": 279.2,
      "last_data_at": "2025-07-01T06:02:01.000+10:00",
      "first_data_at": "1990-10-31T13:12:00.000+10:00",
      "data_owner": "NSW - Sydney Water Corporation (Sydney Water)"
    },
    {
      "status": "candidate_recent",
      "station_no": "568149",
      "station_name": "CAMDEN (BROWNLOW HILL)",
      "lat": -34.0292,
      "lon": 150.6575,
      "days_since_last_data": 279.2,
      "last_data_at": "2025-07-01T06:07:41.000+10:00",
      "first_data_at": "1985-08-01T10:45:00.000+10:00",
      "data_owner": "NSW - Sydney Water Corporation (Sydney Water)"
    },
    {
      "status": "candidate_recent",
      "station_no": "568147",
      "station_name": "CAMDEN (CAMDEN PARK RESERVOIR)",
      "lat": -34.0996,
      "lon": 150.6981,
      "days_since_last_data": 279.2,
      "last_data_at": "2025-07-01T05:57:38.000+10:00",
      "first_data_at": "1985-08-01T12:30:00.000+10:00",
      "data_owner": "NSW - Sydney Water Corporation (Sydney Water)"
    },
    {
      "status": "candidate_recent",
      "station_no": "568156",
      "station_name": "CAMDEN GOLF COURSE",
      "lat": -34.04823588,
      "lon": 150.73002589,
      "days_since_last_data": 279.2,
      "last_data_at": "2025-07-01T06:03:08.000+10:00",
      "first_data_at": "1987-03-23T15:48:00.000+10:00",
      "data_owner": "NSW - Sydney Water Corporation (Sydney Water)"
    },
    {
      "status": "candidate_recent",
      "station_no": "568179",
      "station_name": "CAMPBELLTOWN BOWLING CLUB",
      "lat": -34.0658,
      "lon": 150.8166,
      "days_since_last_data": 279.2,
      "last_data_at": "2025-07-01T06:01:56.000+10:00",
      "first_data_at": "1991-10-23T16:52:00.000+10:00",
      "data_owner": ""
    },
    {
      "status": "candidate_recent",
      "station_no": "568181",
      "station_name": "FIGTREE BOWLING CLUB",
      "lat": -34.4363,
      "lon": 150.8646,
      "days_since_last_data": 279.2,
      "last_data_at": "2025-07-01T06:09:38.000+10:00",
      "first_data_at": "2000-06-04T23:59:00.000+10:00",
      "data_owner": "NSW - Sydney Water Corporation (Sydney Water)"
    },
    {
      "status": "candidate_recent",
      "station_no": "568187",
      "station_name": "JAMBEROO (WOODSTOCK)",
      "lat": -34.6407,
      "lon": 150.7662,
      "days_since_last_data": 279.2,
      "last_data_at": "2025-07-01T06:16:45.000+10:00",
      "first_data_at": "1992-09-15T15:47:00.000+10:00",
      "data_owner": "NSW - Sydney Water Corporation (Sydney Water)"
    },
    {
      "status": "candidate_recent",
      "station_no": "568159",
      "station_name": "KANAHOOKA SPS1113 FORMERLY KANAHOOKA SPS308",
      "lat": -34.50046667,
      "lon": 150.82678333,
      "days_since_last_data": 279.2,
      "last_data_at": "2025-07-01T05:56:21.000+10:00",
      "first_data_at": "1989-04-04T14:02:00.000+10:00",
      "data_owner": "NSW - Sydney Water Corporation (Sydney Water)"
    },
    {
      "status": "candidate_recent",
      "station_no": "568188",
      "station_name": "KIAMA [WATER TANK]",
      "lat": -34.6735,
      "lon": 150.8434,
      "days_since_last_data": 279.2,
      "last_data_at": "2025-07-01T05:51:28.000+10:00",
      "first_data_at": "1992-10-29T14:22:00.000+10:00",
      "data_owner": "NSW - Sydney Water Corporation (Sydney Water)"
    },
    {
      "status": "candidate_recent",
      "station_no": "568168",
      "station_name": "MENANGLE METEOROLOGICAL STATION.",
      "lat": -34.1235,
      "lon": 150.7384,
      "days_since_last_data": 279.2,
      "last_data_at": "2025-07-01T05:45:26.000+10:00",
      "first_data_at": "1990-07-17T13:30:00.000+10:00",
      "data_owner": "NSW - Sydney Water Corporation (Sydney Water)"
    },
    {
      "status": "candidate_recent",
      "station_no": "568350",
      "station_name": "PICTON BOWLING CLUB",
      "lat": -34.166391,
      "lon": 150.610981,
      "days_since_last_data": 279.2,
      "last_data_at": "2025-07-01T06:16:51.000+10:00",
      "first_data_at": "2003-11-07T11:28:04.000+10:00",
      "data_owner": "NSW - Sydney Water Corporation (Sydney Water)"
    },
    {
      "status": "candidate_recent",
      "station_no": "568119",
      "station_name": "SHELLHARBOUR STP (COMPOSITE)",
      "lat": -34.5688,
      "lon": 150.8656,
      "days_since_last_data": 279.2,
      "last_data_at": "2025-07-01T06:09:39.000+10:00",
      "first_data_at": "1990-08-27T12:04:00.000+10:00",
      "data_owner": "NSW - Sydney Water Corporation (Sydney Water)"
    },
    {
      "status": "candidate_recent",
      "station_no": "568186",
      "station_name": "TONGARRA [GLENHAVEN]",
      "lat": -34.581,
      "lon": 150.718,
      "days_since_last_data": 279.2,
      "last_data_at": "2025-07-01T06:02:26.000+10:00",
      "first_data_at": "1992-09-07T14:56:00.000+10:00",
      "data_owner": "NSW - Sydney Water Corporation (Sydney Water)"
    },
    {
      "status": "candidate_recent",
      "station_no": "568044",
      "station_name": "WARRAGAMBA WATER FILTRATION PLANT",
      "lat": -33.8915,
      "lon": 150.5983,
      "days_since_last_data": 279.2,
      "last_data_at": "2025-07-01T05:44:01.000+10:00",
      "first_data_at": "2003-02-19T12:00:00.000+10:00",
      "data_owner": "NSW - Sydney Water Corporation (Sydney Water)"
    },
    {
      "status": "candidate_recent",
      "station_no": "567174",
      "station_name": "WORKERS HUBERTUS CLUB LUDDENHAM",
      "lat": -33.8753,
      "lon": 150.71366,
      "days_since_last_data": 279.2,
      "last_data_at": "2025-07-01T05:43:46.000+10:00",
      "first_data_at": "2024-02-04T03:00:00.000+10:00",
      "data_owner": ""
    },
    {
      "status": "candidate_recent",
      "station_no": "5GYM02",
      "station_name": "YOWIE PUBLIC SCHOOL",
      "lat": -34.048652,
      "lon": 151.10311,
      "days_since_last_data": 279.2,
      "last_data_at": "2025-07-01T06:21:02.000+10:00",
      "first_data_at": "2022-11-30T12:00:00.000+10:00",
      "data_owner": ""
    },
    {
      "status": "candidate_recent",
      "station_no": "568153",
      "station_name": "BELLAMBI BOWLING CLUB (FORMERLY CORRIMAL)",
      "lat": -34.3674,
      "lon": 150.9098,
      "days_since_last_data": 279.3,
      "last_data_at": "2025-07-01T05:39:03.000+10:00",
      "first_data_at": "1987-10-13T15:08:00.000+10:00",
      "data_owner": "NSW - Sydney Water Corporation (Sydney Water)"
    },
    {
      "status": "candidate_recent",
      "station_no": "568173",
      "station_name": "BERKELEY (BERKELEY SPORTS AND SOCIAL CLUB)",
      "lat": -34.483,
      "lon": 150.8473,
      "days_since_last_data": 279.3,
      "last_data_at": "2025-07-01T05:29:36.000+10:00",
      "first_data_at": "1990-10-31T11:02:00.000+10:00",
      "data_owner": "NSW - Sydney Water Corporation (Sydney Water)"
    },
    {
      "status": "candidate_recent",
      "station_no": "568180",
      "station_name": "DAPTO CITIZENS BOWLING CLUB",
      "lat": -34.4998,
      "lon": 150.801,
      "days_since_last_data": 279.3,
      "last_data_at": "2025-07-01T05:40:28.000+10:00",
      "first_data_at": "1991-09-21T09:10:00.000+10:00",
      "data_owner": "NSW - Sydney Water Corporation (Sydney Water)"
    }
  ],
  "top_curated_candidates": [
    {
      "status": "candidate_recent",
      "station_no": "568171",
      "station_name": "ALBION PARK BOWLING CLUB",
      "lat": -34.5703,
      "lon": 150.7684,
      "days_since_last_data": 279.2,
      "last_data_at": "2025-07-01T06:05:20.000+10:00",
      "first_data_at": "1990-10-31T08:56:00.000+10:00",
      "data_owner": "NSW - Sydney Water Corporation (Sydney Water)"
    },
    {
      "status": "candidate_recent",
      "station_no": "568162",
      "station_name": "BALGOWNIE RESERVOIR",
      "lat": -34.3928,
      "lon": 150.8703,
      "days_since_last_data": 279.2,
      "last_data_at": "2025-07-01T05:54:52.000+10:00",
      "first_data_at": "1990-01-03T12:30:00.000+10:00",
      "data_owner": "NSW - Sydney Water Corporation (Sydney Water)"
    },
    {
      "status": "candidate_recent",
      "station_no": "5CPS02",
      "station_name": "BELMORE BOWLING CLUB",
      "lat": -33.9182,
      "lon": 151.0922,
      "days_since_last_data": 279.2,
      "last_data_at": "2025-07-01T06:25:35.000+10:00",
      "first_data_at": "2014-08-28T09:00:08.000+10:00",
      "data_owner": ""
    },
    {
      "status": "candidate_recent",
      "station_no": "568170",
      "station_name": "BOMBO STP",
      "lat": -34.652,
      "lon": 150.86,
      "days_since_last_data": 279.2,
      "last_data_at": "2025-07-01T05:59:04.000+10:00",
      "first_data_at": "1990-10-02T15:26:00.000+10:00",
      "data_owner": "NSW - Sydney Water Corporation (Sydney Water)"
    },
    {
      "status": "candidate_recent",
      "station_no": "568172",
      "station_name": "BULLI BOWLING CLUB (FORMERLY THIRROUL BC)",
      "lat": -34.3319,
      "lon": 150.9134,
      "days_since_last_data": 279.2,
      "last_data_at": "2025-07-01T06:02:01.000+10:00",
      "first_data_at": "1990-10-31T13:12:00.000+10:00",
      "data_owner": "NSW - Sydney Water Corporation (Sydney Water)"
    },
    {
      "status": "candidate_recent",
      "station_no": "568149",
      "station_name": "CAMDEN (BROWNLOW HILL)",
      "lat": -34.0292,
      "lon": 150.6575,
      "days_since_last_data": 279.2,
      "last_data_at": "2025-07-01T06:07:41.000+10:00",
      "first_data_at": "1985-08-01T10:45:00.000+10:00",
      "data_owner": "NSW - Sydney Water Corporation (Sydney Water)"
    },
    {
      "status": "candidate_recent",
      "station_no": "568147",
      "station_name": "CAMDEN (CAMDEN PARK RESERVOIR)",
      "lat": -34.0996,
      "lon": 150.6981,
      "days_since_last_data": 279.2,
      "last_data_at": "2025-07-01T05:57:38.000+10:00",
      "first_data_at": "1985-08-01T12:30:00.000+10:00",
      "data_owner": "NSW - Sydney Water Corporation (Sydney Water)"
    },
    {
      "status": "candidate_recent",
      "station_no": "568156",
      "station_name": "CAMDEN GOLF COURSE",
      "lat": -34.04823588,
      "lon": 150.73002589,
      "days_since_last_data": 279.2,
      "last_data_at": "2025-07-01T06:03:08.000+10:00",
      "first_data_at": "1987-03-23T15:48:00.000+10:00",
      "data_owner": "NSW - Sydney Water Corporation (Sydney Water)"
    },
    {
      "status": "candidate_recent",
      "station_no": "568179",
      "station_name": "CAMPBELLTOWN BOWLING CLUB",
      "lat": -34.0658,
      "lon": 150.8166,
      "days_since_last_data": 279.2,
      "last_data_at": "2025-07-01T06:01:56.000+10:00",
      "first_data_at": "1991-10-23T16:52:00.000+10:00",
      "data_owner": ""
    },
    {
      "status": "candidate_recent",
      "station_no": "568181",
      "station_name": "FIGTREE BOWLING CLUB",
      "lat": -34.4363,
      "lon": 150.8646,
      "days_since_last_data": 279.2,
      "last_data_at": "2025-07-01T06:09:38.000+10:00",
      "first_data_at": "2000-06-04T23:59:00.000+10:00",
      "data_owner": "NSW - Sydney Water Corporation (Sydney Water)"
    },
    {
      "status": "candidate_recent",
      "station_no": "568187",
      "station_name": "JAMBEROO (WOODSTOCK)",
      "lat": -34.6407,
      "lon": 150.7662,
      "days_since_last_data": 279.2,
      "last_data_at": "2025-07-01T06:16:45.000+10:00",
      "first_data_at": "1992-09-15T15:47:00.000+10:00",
      "data_owner": "NSW - Sydney Water Corporation (Sydney Water)"
    },
    {
      "status": "candidate_recent",
      "station_no": "568159",
      "station_name": "KANAHOOKA SPS1113 FORMERLY KANAHOOKA SPS308",
      "lat": -34.50046667,
      "lon": 150.82678333,
      "days_since_last_data": 279.2,
      "last_data_at": "2025-07-01T05:56:21.000+10:00",
      "first_data_at": "1989-04-04T14:02:00.000+10:00",
      "data_owner": "NSW - Sydney Water Corporation (Sydney Water)"
    },
    {
      "status": "candidate_recent",
      "station_no": "568188",
      "station_name": "KIAMA [WATER TANK]",
      "lat": -34.6735,
      "lon": 150.8434,
      "days_since_last_data": 279.2,
      "last_data_at": "2025-07-01T05:51:28.000+10:00",
      "first_data_at": "1992-10-29T14:22:00.000+10:00",
      "data_owner": "NSW - Sydney Water Corporation (Sydney Water)"
    },
    {
      "status": "candidate_recent",
      "station_no": "568168",
      "station_name": "MENANGLE METEOROLOGICAL STATION.",
      "lat": -34.1235,
      "lon": 150.7384,
      "days_since_last_data": 279.2,
      "last_data_at": "2025-07-01T05:45:26.000+10:00",
      "first_data_at": "1990-07-17T13:30:00.000+10:00",
      "data_owner": "NSW - Sydney Water Corporation (Sydney Water)"
    },
    {
      "status": "candidate_recent",
      "station_no": "568350",
      "station_name": "PICTON BOWLING CLUB",
      "lat": -34.166391,
      "lon": 150.610981,
      "days_since_last_data": 279.2,
      "last_data_at": "2025-07-01T06:16:51.000+10:00",
      "first_data_at": "2003-11-07T11:28:04.000+10:00",
      "data_owner": "NSW - Sydney Water Corporation (Sydney Water)"
    },
    {
      "status": "candidate_recent",
      "station_no": "568186",
      "station_name": "TONGARRA [GLENHAVEN]",
      "lat": -34.581,
      "lon": 150.718,
      "days_since_last_data": 279.2,
      "last_data_at": "2025-07-01T06:02:26.000+10:00",
      "first_data_at": "1992-09-07T14:56:00.000+10:00",
      "data_owner": "NSW - Sydney Water Corporation (Sydney Water)"
    },
    {
      "status": "candidate_recent",
      "station_no": "568044",
      "station_name": "WARRAGAMBA WATER FILTRATION PLANT",
      "lat": -33.8915,
      "lon": 150.5983,
      "days_since_last_data": 279.2,
      "last_data_at": "2025-07-01T05:44:01.000+10:00",
      "first_data_at": "2003-02-19T12:00:00.000+10:00",
      "data_owner": "NSW - Sydney Water Corporation (Sydney Water)"
    },
    {
      "status": "candidate_recent",
      "station_no": "567174",
      "station_name": "WORKERS HUBERTUS CLUB LUDDENHAM",
      "lat": -33.8753,
      "lon": 150.71366,
      "days_since_last_data": 279.2,
      "last_data_at": "2025-07-01T05:43:46.000+10:00",
      "first_data_at": "2024-02-04T03:00:00.000+10:00",
      "data_owner": ""
    },
    {
      "status": "candidate_recent",
      "station_no": "5GYM02",
      "station_name": "YOWIE PUBLIC SCHOOL",
      "lat": -34.048652,
      "lon": 151.10311,
      "days_since_last_data": 279.2,
      "last_data_at": "2025-07-01T06:21:02.000+10:00",
      "first_data_at": "2022-11-30T12:00:00.000+10:00",
      "data_owner": ""
    },
    {
      "status": "candidate_recent",
      "station_no": "568153",
      "station_name": "BELLAMBI BOWLING CLUB (FORMERLY CORRIMAL)",
      "lat": -34.3674,
      "lon": 150.9098,
      "days_since_last_data": 279.3,
      "last_data_at": "2025-07-01T05:39:03.000+10:00",
      "first_data_at": "1987-10-13T15:08:00.000+10:00",
      "data_owner": "NSW - Sydney Water Corporation (Sydney Water)"
    },
    {
      "status": "candidate_recent",
      "station_no": "568173",
      "station_name": "BERKELEY (BERKELEY SPORTS AND SOCIAL CLUB)",
      "lat": -34.483,
      "lon": 150.8473,
      "days_since_last_data": 279.3,
      "last_data_at": "2025-07-01T05:29:36.000+10:00",
      "first_data_at": "1990-10-31T11:02:00.000+10:00",
      "data_owner": "NSW - Sydney Water Corporation (Sydney Water)"
    },
    {
      "status": "candidate_recent",
      "station_no": "568180",
      "station_name": "DAPTO CITIZENS BOWLING CLUB",
      "lat": -34.4998,
      "lon": 150.801,
      "days_since_last_data": 279.3,
      "last_data_at": "2025-07-01T05:40:28.000+10:00",
      "first_data_at": "1991-09-21T09:10:00.000+10:00",
      "data_owner": "NSW - Sydney Water Corporation (Sydney Water)"
    },
    {
      "status": "candidate_recent",
      "station_no": "568053",
      "station_name": "PICTON STP",
      "lat": -34.2029,
      "lon": 150.6148,
      "days_since_last_data": 279.3,
      "last_data_at": "2025-07-01T05:02:25.000+10:00",
      "first_data_at": "1998-04-09T14:00:00.000+10:00",
      "data_owner": "NSW - Sydney Water Corporation (Sydney Water)"
    },
    {
      "status": "candidate_recent",
      "station_no": "567175",
      "station_name": "SP1160 MARSDEN PARK",
      "lat": -33.69112,
      "lon": 150.80575,
      "days_since_last_data": 279.3,
      "last_data_at": "2025-07-01T04:09:36.000+10:00",
      "first_data_at": "2023-12-12T07:07:25.000+10:00",
      "data_owner": ""
    },
    {
      "status": "candidate_recent",
      "station_no": "568351",
      "station_name": "TAHMOOR (INGHAMS PROCESSING PLANT)",
      "lat": -34.2292,
      "lon": 150.5921,
      "days_since_last_data": 279.3,
      "last_data_at": "2025-07-01T05:33:48.000+10:00",
      "first_data_at": "2000-02-29T23:59:00.000+10:00",
      "data_owner": "NSW - Sydney Water Corporation (Sydney Water)"
    }
  ],
  "camden_matches": [
    {
      "status": "candidate_recent",
      "station_no": "568149",
      "station_name": "CAMDEN (BROWNLOW HILL)",
      "lat": -34.0292,
      "lon": 150.6575,
      "days_since_last_data": 279.2,
      "last_data_at": "2025-07-01T06:07:41.000+10:00",
      "first_data_at": "1985-08-01T10:45:00.000+10:00",
      "data_owner": "NSW - Sydney Water Corporation (Sydney Water)"
    },
    {
      "status": "candidate_recent",
      "station_no": "568147",
      "station_name": "CAMDEN (CAMDEN PARK RESERVOIR)",
      "lat": -34.0996,
      "lon": 150.6981,
      "days_since_last_data": 279.2,
      "last_data_at": "2025-07-01T05:57:38.000+10:00",
      "first_data_at": "1985-08-01T12:30:00.000+10:00",
      "data_owner": "NSW - Sydney Water Corporation (Sydney Water)"
    },
    {
      "status": "candidate_recent",
      "station_no": "568156",
      "station_name": "CAMDEN GOLF COURSE",
      "lat": -34.04823588,
      "lon": 150.73002589,
      "days_since_last_data": 279.2,
      "last_data_at": "2025-07-01T06:03:08.000+10:00",
      "first_data_at": "1987-03-23T15:48:00.000+10:00",
      "data_owner": "NSW - Sydney Water Corporation (Sydney Water)"
    },
    {
      "status": "candidate_recent",
      "station_no": "568130",
      "station_name": "WEST CAMDEN STP (COMPOSITE)",
      "lat": -34.059,
      "lon": 150.6809,
      "days_since_last_data": 279.3,
      "last_data_at": "2025-07-01T05:37:39.000+10:00",
      "first_data_at": "1983-08-11T11:00:00.000+10:00",
      "data_owner": "NSW - Sydney Water Corporation (Sydney Water)"
    }
  ],
  "camden_curated_matches": [
    {
      "status": "candidate_recent",
      "station_no": "568149",
      "station_name": "CAMDEN (BROWNLOW HILL)",
      "lat": -34.0292,
      "lon": 150.6575,
      "days_since_last_data": 279.2,
      "last_data_at": "2025-07-01T06:07:41.000+10:00",
      "first_data_at": "1985-08-01T10:45:00.000+10:00",
      "data_owner": "NSW - Sydney Water Corporation (Sydney Water)"
    },
    {
      "status": "candidate_recent",
      "station_no": "568147",
      "station_name": "CAMDEN (CAMDEN PARK RESERVOIR)",
      "lat": -34.0996,
      "lon": 150.6981,
      "days_since_last_data": 279.2,
      "last_data_at": "2025-07-01T05:57:38.000+10:00",
      "first_data_at": "1985-08-01T12:30:00.000+10:00",
      "data_owner": "NSW - Sydney Water Corporation (Sydney Water)"
    },
    {
      "status": "candidate_recent",
      "station_no": "568156",
      "station_name": "CAMDEN GOLF COURSE",
      "lat": -34.04823588,
      "lon": 150.73002589,
      "days_since_last_data": 279.2,
      "last_data_at": "2025-07-01T06:03:08.000+10:00",
      "first_data_at": "1987-03-23T15:48:00.000+10:00",
      "data_owner": "NSW - Sydney Water Corporation (Sydney Water)"
    }
  ]
}